id,nivel,nombre,turno,domicilio,colonia,alcaldia,sostenimiento,ubicacion,lat,lon,coordenadas
0,INICIAL,CENDI PART SEDI LOMAS,MATUTINO,EXPLANADA NO. 305,LOMAS DE CHAPULTEPEC,MIGUEL HIDALGO,Particular,"EXPLANADA NO. 305, LOMAS DE CHAPULTEPEC, MIGUEL HIDALGO",19.4251542,-99.211154,"19.4251542,-99.211154"
1,INICIAL,ARMONIA INFANTIL,MATUTINO,AV. SINATEL No 38 MZ. 4 LT. 21,SINATEL AMPLIACION,IZTAPALAPA,Particular,"AV. SINATEL No 38 MZ. 4 LT. 21, SINATEL AMPLIACION, IZTAPALAPA",19.3648281,-99.1318013,"19.3648281,-99.1318013"
2,INICIAL,CENDI PART. COLEGIO DE LAS BALEARES,TIEMPO COMPLETO,JOSEFA ORTIZ DE DOMINGUEZ NO 2,TIZAPAN,ALVARO OBREGON,Particular,"JOSEFA ORTIZ DE DOMINGUEZ NO 2, TIZAPAN, ALVARO OBREGON",19.3351668,-99.202637,"19.3351668,-99.202637"
3,INICIAL,"CENDI PART COLEGIO CIBELES, S.C.",MATUTINO,RIO GRIJALVA NUM 27,CUAUHTEMOC,CUAUHTEMOC,Particular,"RIO GRIJALVA NUM 27, CUAUHTEMOC, CUAUHTEMOC",19.4336398,-99.1701471,"19.4336398,-99.1701471"
4,INICIAL,CENTRO DE DESARROLLO INFANTIL KINDERGARDEN,TIEMPO COMPLETO,CALLE 11 DE ENERO DE 1861 NO. 2114,LEYES DE REFORMA,IZTAPALAPA,Particular,"CALLE 11 DE ENERO DE 1861 NO. 2114, LEYES DE REFORMA, IZTAPALAPA",19.3826355,-99.0661015,"19.3826355,-99.0661015"
5,INICIAL,DASHEEN S.C,TIEMPO COMPLETO,AV. ALFREDO ROBLES DOMINGUEZ NUM 115,INDUSTRIAL,GUSTAVO A. MADERO,Particular,"AV. ALFREDO ROBLES DOMINGUEZ NUM 115, INDUSTRIAL, GUSTAVO A. MADERO",19.4694276,-99.1286238,"19.4694276,-99.1286238"
6,INICIAL,CENDI PART CENTRO ECOLOGICO DE DESARROLLO INFANTIL,TIEMPO COMPLETO,BARRANCA DE PILARES NUM 24,TLACOPAC,ALVARO OBREGON,Particular,"BARRANCA DE PILARES NUM 24, TLACOPAC, ALVARO OBREGON",19.3544879,-99.2025308,"19.3544879,-99.2025308"
7,INICIAL,ESTANCIA INFANTIL ALKACINA,TIEMPO COMPLETO,JOSÉ DEL RÍO 171,SANTA MARTHA ACATITLA,IZTAPALAPA,Particular,"JOSÉ DEL RÍO 171, SANTA MARTHA ACATITLA, IZTAPALAPA",19.3698434,-99.0207062,"19.3698434,-99.0207062"
8,INICIAL,INSTITUTO DE APOYO AL NIÑO,MATUTINO,CERRO TUERA NO. 7,OXTOPULCO,COYOACAN,Particular,"CERRO TUERA NO. 7, OXTOPULCO, COYOACAN",19.3417768,-99.1820653,"19.3417768,-99.1820653"
9,INICIAL,GUARDERIA PARTICIPATIVA U-914,TIEMPO COMPLETO,AV. MICHOACAN NO. 20,RENOVACION,IZTAPALAPA,Particular,"AV. MICHOACAN NO. 20, RENOVACION, IZTAPALAPA",19.3660906,-99.0533139,"19.3660906,-99.0533139"
10,INICIAL,LICEO MEXICANO JEAN PIAGET,TIEMPO COMPLETO,CALLE ESTIO NUM 61,ANGEL ZIMBRON,AZCAPOTZALCO,Particular,"CALLE ESTIO NUM 61, ANGEL ZIMBRON, AZCAPOTZALCO",19.4660408,-99.1903621,"19.4660408,-99.1903621"
11,INICIAL,COLEGIO SAN AGUSTIN,TIEMPO COMPLETO,MUSSET NUM 218,POLANCO REFORMA,MIGUEL HIDALGO,Particular,"MUSSET NUM 218, POLANCO REFORMA, MIGUEL HIDALGO",19.4351009,-99.196841,"19.4351009,-99.196841"
12,INICIAL,CENDI PART JARDIN ENCANTADO,TIEMPO COMPLETO,RIO BAMBA NUM 713 Y 713A,LINDAVISTA,GUSTAVO A. MADERO,Particular,"RIO BAMBA NUM 713 Y 713A, LINDAVISTA, GUSTAVO A. MADERO",19.4892334,-99.1280401,"19.4892334,-99.1280401"
13,INICIAL,COLEGIO CIBELES,MATUTINO,RIO GANGES NUM 81,CUAUHTEMOC,CUAUHTEMOC,Particular,"RIO GANGES NUM 81, CUAUHTEMOC, CUAUHTEMOC",19.4274132,-99.1721186,"19.4274132,-99.1721186"
14,INICIAL,ESTANCIA INFANTIL PRIMAVERA,MATUTINO,LAGO MAYOR N¦ 186,ANAHUAC I,MIGUEL HIDALGO,Particular,"LAGO MAYOR N¦ 186, ANAHUAC I, MIGUEL HIDALGO",19.4452975,-99.186061,"19.4452975,-99.186061"
15,INICIAL,COLEGIO RICHARDSON,MATUTINO,CERRADA DE BENITO JUÁREZ NO. 17,CULHUACAN,IZTAPALAPA,Particular,"CERRADA DE BENITO JUÁREZ NO. 17, CULHUACAN, IZTAPALAPA",19.3388902,-99.1101838,"19.3388902,-99.1101838"
16,INICIAL,CENTRO INTEGRAL INFANTIL LA SALLE SIMON BOLIVAR,MATUTINO,MURCIA NO. 14,INSURGENTES MIXCOAC,BENITO JUAREZ,Particular,"MURCIA NO. 14, INSURGENTES MIXCOAC, BENITO JUAREZ",19.3700367,-99.1810804,"19.3700367,-99.1810804"
17,INICIAL,CENDI PART EDUCACIÓN Y DES. DEL INFANTE,MATUTINO,GUTIERREZ ZAMORA 19,LAS AGUILAS,ALVARO OBREGON,Particular,"GUTIERREZ ZAMORA 19, LAS AGUILAS, ALVARO OBREGON",19.3579164,-99.1991127,"19.3579164,-99.1991127"
18,INICIAL,CENDI PART BUTTERFLY,TIEMPO COMPLETO,SILVESTRE REVUELTAS NUM 15,GUADALUPE INN,ALVARO OBREGON,Particular,"SILVESTRE REVUELTAS NUM 15, GUADALUPE INN, ALVARO OBREGON",19.3619222,-99.1875906,"19.3619222,-99.1875906"
19,INICIAL,CENTRO DE DESARROLLO INFANTIL UNA SEMILLA DE LUZ S.C.,TIEMPO COMPLETO,VICTOR HUGO NUM 33,ANZURES,MIGUEL HIDALGO,Particular,"VICTOR HUGO NUM 33, ANZURES, MIGUEL HIDALGO",19.4278108,-99.1765702,"19.4278108,-99.1765702"
20,INICIAL,CENDI PART NUEVA GENERACION,TIEMPO COMPLETO,NARANJO 159,SANTA MARIA LA RIBERA,CUAUHTEMOC,Particular,"NARANJO 159, SANTA MARIA LA RIBERA, CUAUHTEMOC",19.450408,-99.1583072,"19.450408,-99.1583072"
21,INICIAL,CENDI PART AMERICAN CENTER FOR CHILDREN,MATUTINO,OBRERO MUNDIAL NUM 172,DEL VALLE,BENITO JUAREZ,Particular,"OBRERO MUNDIAL NUM 172, DEL VALLE, BENITO JUAREZ",19.401007,-99.1641844,"19.401007,-99.1641844"
22,INICIAL,CENDI PART HOGAR Y FUTURO A.C.,TIEMPO COMPLETO,PALMAS S/N,SAN BARTOLO AMEYALCO,ALVARO OBREGON,Particular,"PALMAS S/N, SAN BARTOLO AMEYALCO, ALVARO OBREGON",19.3257681,-99.2666357,"19.3257681,-99.2666357"
23,INICIAL,CENDI PART IGNACIO ZARAGOZA,TIEMPO COMPLETO,CALLE 63 NO. 42,PUEBLA,VENUSTIANO CARRANZA,Particular,"CALLE 63 NO. 42, PUEBLA, VENUSTIANO CARRANZA",19.4104706,-99.0838974,"19.4104706,-99.0838974"
24,INICIAL,"CENDI PART JARDIN DE NIÑOS ""ALI""",MATUTINO,AJUSCO NO 90,TORIELLO GUERRA,TLALPAN,Particular,"AJUSCO NO 90, TORIELLO GUERRA, TLALPAN",19.2945075,-99.1600325,"19.2945075,-99.1600325"
25,INICIAL,COLEGIO BILINGÜE RICHARDSON,MATUTINO,MARCOS CARRILLO NUM 351,VIADUCTO PIEDAD,IZTACALCO,Particular,"MARCOS CARRILLO NUM 351, VIADUCTO PIEDAD, IZTACALCO",19.3993687,-99.1342656,"19.3993687,-99.1342656"
26,INICIAL,CENDI PART INSTITUTO DE LAS BALEARES S.C.,MATUTINO,AV. GUADALUPE I. RAMIREZ NUM 616,TIERRA NUEVA,XOCHIMILCO,Particular,"AV. GUADALUPE I. RAMIREZ NUM 616, TIERRA NUEVA, XOCHIMILCO",19.2676487,-99.1244629,"19.2676487,-99.1244629"
27,INICIAL,ESTANCIA INFANTIL LINDAVISTA S.C. JUGANDO APRENDEMOS,TIEMPO COMPLETO,CHOSICA NUM 695,LINDAVISTA,GUSTAVO A. MADERO,Particular,"CHOSICA NUM 695, LINDAVISTA, GUSTAVO A. MADERO",19.4919388,-99.1354042,"19.4919388,-99.1354042"
28,INICIAL,CENDI PART CENTINELA DE INFANTES S.C.,TIEMPO COMPLETO,SAN FRANCISCO NUM 303,DEL VALLE,BENITO JUAREZ,Particular,"SAN FRANCISCO NUM 303, DEL VALLE, BENITO JUAREZ",19.3954539,-99.1701479,"19.3954539,-99.1701479"
29,INICIAL,CENDI PART COLEGIO PEDAGOGICO DE LA CIUDAD DE MÉXICO S.C. GORATONY II,TIEMPO COMPLETO,ANICETO ORTEGA NUM 639,DEL VALLE,BENITO JUAREZ,Particular,"ANICETO ORTEGA NUM 639, DEL VALLE, BENITO JUAREZ",19.3798221,-99.1650473,"19.3798221,-99.1650473"
30,INICIAL,CENDI PART INSTITUTO SHAKESPEARE S.C.,TIEMPO COMPLETO,HEROES NUM 83,GUERRERO,CUAUHTEMOC,Particular,"HEROES NUM 83, GUERRERO, CUAUHTEMOC",19.4427727,-99.1463287,"19.4427727,-99.1463287"
31,INICIAL,CENDI PART LOS PEQUEÑOS GENIOS II,TIEMPO COMPLETO,AV. SAN JUAN ARAGON NUM 70,VALLE DE GUADALUPE,GUSTAVO A. MADERO,Particular,"AV. SAN JUAN ARAGON NUM 70, VALLE DE GUADALUPE, GUSTAVO A. MADERO",19.4836662,-99.1112401,"19.4836662,-99.1112401"
32,INICIAL,CENDI PART. CENTRO EDUCATIVO CARACOLETA,MATUTINO,PALO ALTO NO. 20,PALO ALTO,CUAJIMALPA DE MORELOS,Particular,"PALO ALTO NO. 20, PALO ALTO, CUAJIMALPA DE MORELOS",19.3812215,-99.2562091,"19.3812215,-99.2562091"
33,INICIAL,PROINFANCIA TERESITA,TIEMPO COMPLETO,LAPLACE NO. 31,NUEVA ANZURES,MIGUEL HIDALGO,Particular,"LAPLACE NO. 31, NUEVA ANZURES, MIGUEL HIDALGO",19.4352975,-99.17908,"19.4352975,-99.17908"
34,INICIAL,CENTRO DE DESARROLLO INFANTIL MIRAVALLE,MATUTINO,BALSAS NO. 13,MIRAVALLE,BENITO JUAREZ,Particular,"BALSAS NO. 13, MIRAVALLE, BENITO JUAREZ",19.3607826,-99.1399294,"19.3607826,-99.1399294"
35,INICIAL,GUARDERIA YOLTZIN,TIEMPO COMPLETO,CALLE 557 NO. 131,UNIDAD SAN JUAN DE ARAGON,GUSTAVO A. MADERO,Particular,"CALLE 557 NO. 131, UNIDAD SAN JUAN DE ARAGON, GUSTAVO A. MADERO",19.4533989,-99.0841409,"19.4533989,-99.0841409"
36,INICIAL,LOS PEQUEÑOS GENIOS III,TIEMPO COMPLETO,CALZADA DE GUADALUPE NO. 156,PERALVILLO,CUAUHTEMOC,Particular,"CALZADA DE GUADALUPE NO. 156, PERALVILLO, CUAUHTEMOC",19.46001,-99.1270468,"19.46001,-99.1270468"
37,INICIAL,KINDERGYM,MATUTINO,GENARO GARCIA NO. 164 Y 166,JARDIN BALBUENA,VENUSTIANO CARRANZA,Particular,"GENARO GARCIA NO. 164 Y 166, JARDIN BALBUENA, VENUSTIANO CARRANZA",19.4177429,-99.1081109,"19.4177429,-99.1081109"
38,INICIAL,CENTRO EDUCATIVO MONTESSORI ISKU IREKHORENI,MATUTINO,DIVISION DEL NORTE NO. 35,SANTIAGO TULYEHUALCO,XOCHIMILCO,Particular,"DIVISION DEL NORTE NO. 35, SANTIAGO TULYEHUALCO, XOCHIMILCO",19.2542326,-99.010281,"19.2542326,-99.010281"
39,INICIAL,CENDI PART BABY BEE,MATUTINO,LERDO DE TEJADA NO. 79,GUADALUPE INN,ALVARO OBREGON,Particular,"LERDO DE TEJADA NO. 79, GUADALUPE INN, ALVARO OBREGON",19.3567798,-99.1861534,"19.3567798,-99.1861534"
40,INICIAL,COLEGIO LOMAS HILL,MATUTINO,GUILLERMO GONZALEZ CAMARENA NUM 1500,SANTA FE,ALVARO OBREGON,Particular,"GUILLERMO GONZALEZ CAMARENA NUM 1500, SANTA FE, ALVARO OBREGON",19.3652877,-99.2658257,"19.3652877,-99.2658257"
41,INICIAL,CENDI PART. COMUNIDAD MONTESSORI BOSQUES,MATUTINO,AVENIDA STIM NO. 1340,BOSQUES DE LAS LOMAS,CUAJIMALPA DE MORELOS,Particular,"AVENIDA STIM NO. 1340, BOSQUES DE LAS LOMAS, CUAJIMALPA DE MORELOS",19.3893415,-99.260778,"19.3893415,-99.260778"
42,INICIAL,GRUPO EDUCATIVO GOKO,MATUTINO,NORTE 66 NUMERO 3807,MARTIRES DE RIO BLANCO,GUSTAVO A. MADERO,Particular,"NORTE 66 NUMERO 3807, MARTIRES DE RIO BLANCO, GUSTAVO A. MADERO",19.4608634,-99.110943,"19.4608634,-99.110943"
43,INICIAL,CENTRO DE DESARROLLO INFANTIL CASTORES,TIEMPO COMPLETO,AVENIDA 557 NUM 60,UNIDAD SAN JUAN DE ARAGON 2A SECCION,GUSTAVO A. MADERO,Particular,"AVENIDA 557 NUM 60, UNIDAD SAN JUAN DE ARAGON 2A SECCION, GUSTAVO A. MADERO",19.4495944,-99.0858584,"19.4495944,-99.0858584"
44,INICIAL,INSTITUTO PEDAGÓGICO DE EDUCACIÓN INICIAL,TIEMPO COMPLETO,CALZ. ERMITA IZTAPALAPA NO. 2393 ENTRE ALTAMIRANO E HIDALGO,SANTA CRUZ MEYEHUALCO,IZTAPALAPA,Particular,"CALZ. ERMITA IZTAPALAPA NO. 2393 ENTRE ALTAMIRANO E HIDALGO, SANTA CRUZ MEYEHUALCO, IZTAPALAPA",19.34365,-99.0356007,"19.34365,-99.0356007"
45,INICIAL,GRUPO EDUCATIVO KOGUS,TIEMPO COMPLETO,PARANAGUA NUM 1136,RESIDENCIAL ZACATENCO,GUSTAVO A. MADERO,Particular,"PARANAGUA NUM 1136, RESIDENCIAL ZACATENCO, GUSTAVO A. MADERO",19.5050739,-99.126814,"19.5050739,-99.126814"
46,INICIAL,ESTANCIA DE LA NIÑEZ MEXICANA S.C.,TIEMPO COMPLETO,AV. NECAXA NUM 30,INDUSTRIAL,GUSTAVO A. MADERO,Particular,"AV. NECAXA NUM 30, INDUSTRIAL, GUSTAVO A. MADERO",19.475118,-99.122161,"19.475118,-99.122161"
47,INICIAL,CENTRO PEDAGOGICO KARYMONY,MATUTINO,JAVIER SORONDO NO. 319,VILLA DE CORTES,BENITO JUAREZ,Particular,"JAVIER SORONDO NO. 319, VILLA DE CORTES, BENITO JUAREZ",19.3868935,-99.1360814,"19.3868935,-99.1360814"
48,INICIAL,CENDI PART KINDER KARE,TIEMPO COMPLETO,AV. DE LOS CEDROS NUM 74,CONTADERO,CUAJIMALPA DE MORELOS,Particular,"AV. DE LOS CEDROS NUM 74, CONTADERO, CUAJIMALPA DE MORELOS",19.3494661,-99.295343,"19.3494661,-99.295343"
49,INICIAL,CENTRO DE EDUCACIÓN INFANTIL M.I.A.,MATUTINO,OKLAHOMA NUM 138,NAPOLES,BENITO JUAREZ,Particular,"OKLAHOMA NUM 138, NAPOLES, BENITO JUAREZ",19.3912245,-99.1796061,"19.3912245,-99.1796061"
50,INICIAL,LA CARITA FELIZ,TIEMPO COMPLETO,AV. AQUILES SERDAN NUM 34,LA GUADALUPITA,XOCHIMILCO,Particular,"AV. AQUILES SERDAN NUM 34, LA GUADALUPITA, XOCHIMILCO",19.2561565,-99.0146765,"19.2561565,-99.0146765"
51,INICIAL,CENDI PART JARDIN DE NIÑOS CEIDHI,MATUTINO,ORIENTE 91 NUM 2353,EMILIANO ZAPATA,GUSTAVO A. MADERO,Particular,"ORIENTE 91 NUM 2353, EMILIANO ZAPATA, GUSTAVO A. MADERO",19.462428,-99.1198421,"19.462428,-99.1198421"
52,INICIAL,CENTRO PEDAGOGICO INFANTIL PETIT,MATUTINO,LUIS LARA PARDO NUM 19,JARDIN BALBUENA,VENUSTIANO CARRANZA,Particular,"LUIS LARA PARDO NUM 19, JARDIN BALBUENA, VENUSTIANO CARRANZA",19.4174423,-99.1144686,"19.4174423,-99.1144686"
53,INICIAL,BAMBINELLO,TIEMPO COMPLETO,CUAUHTÉMOC NO. 149,SAN PEDRO,IZTAPALAPA,Particular,"CUAUHTÉMOC NO. 149, SAN PEDRO, IZTAPALAPA",19.3629545,-99.0894216,"19.3629545,-99.0894216"
54,INICIAL,CENTRO EDUCATIVO PARA PEQUES,MATUTINO,BUENAVISTA NUM 119,PUEBLO NUEVO BAJO,LA MAGDALENA CONTRERAS,Particular,"BUENAVISTA NUM 119, PUEBLO NUEVO BAJO, LA MAGDALENA CONTRERAS",19.3029391,-99.2484795,"19.3029391,-99.2484795"
55,INICIAL,AMERICAN BRITISH SCHOOL LINDAVISTA,MATUTINO,AREQUIPA NUM 606,LINDAVISTA,GUSTAVO A. MADERO,Particular,"AREQUIPA NUM 606, LINDAVISTA, GUSTAVO A. MADERO",19.4925794,-99.12142,"19.4925794,-99.12142"
56,INICIAL,CENTRO DE DESARROLLO INFANTIL MUNDO FELIZ,MATUTINO,NEZAHUALCOYOTL NO. 126,ARAGON,GUSTAVO A. MADERO,Particular,"NEZAHUALCOYOTL NO. 126, ARAGON, GUSTAVO A. MADERO",19.478471,-99.1141256,"19.478471,-99.1141256"
57,INICIAL,"DASHEEN, S. C.",MATUTINO,CALZADA MEXICO TACUBA NO 982,TORRE BLANCA,MIGUEL HIDALGO,Particular,"CALZADA MEXICO TACUBA NO 982, TORRE BLANCA, MIGUEL HIDALGO",19.4591225,-99.1952485,"19.4591225,-99.1952485"
58,Preescolar,CENTRO EDUCATIVO EXEA,MATUTINO,EJE 10 SUR NO. 49,LOS REYES,COYOACAN,Particular,"EJE 10 SUR NO. 49, LOS REYES, COYOACAN",19.3353498,-99.1604262,"19.3353498,-99.1604262"
59,Preescolar,LAS HORMIGUITAS,MATUTINO,RETORNO 6 FRAY SERVANDO T. DE MIER NO. 7,JARDIN BALBUENA,VENUSTIANO CARRANZA,Particular,"RETORNO 6 FRAY SERVANDO T. DE MIER NO. 7, JARDIN BALBUENA, VENUSTIANO CARRANZA",19.4194453,-99.1093296,"19.4194453,-99.1093296"
60,Preescolar,LA PAZ DEL MUNDO,MATUTINO,NORTE 25 NO. 60,MOCTEZUMA 2A SECCION,VENUSTIANO CARRANZA,Particular,"NORTE 25 NO. 60, MOCTEZUMA 2A SECCION, VENUSTIANO CARRANZA",19.4340706,-99.0985823,"19.4340706,-99.0985823"
61,Preescolar,INSTITUTO JAN AMOS KOMENSKY,MATUTINO,FERNANDO VILLALPANDO No. 24,GUADALUPE INN,ALVARO OBREGON,Particular,"FERNANDO VILLALPANDO No. 24, GUADALUPE INN, ALVARO OBREGON",19.3532747,-99.1890193,"19.3532747,-99.1890193"
62,Preescolar,COLEGIO SAGRADO CORAZON,MATUTINO,CAMINO A SANTA TERESA No. 950,SANTA TERESA,LA MAGDALENA CONTRERAS,Particular,"CAMINO A SANTA TERESA No. 950, SANTA TERESA, LA MAGDALENA CONTRERAS",19.3100462,-99.2259272,"19.3100462,-99.2259272"
63,Preescolar,INSTITUTO MORELOS,MATUTINO,GOLFO DE CAMPECHE NO. 17,TACUBA,MIGUEL HIDALGO,Particular,"GOLFO DE CAMPECHE NO. 17, TACUBA, MIGUEL HIDALGO",19.4580475,-99.1860548,"19.4580475,-99.1860548"
64,Preescolar,LUPITA,MATUTINO,AV. THIERS NO. 201,ANZURES,MIGUEL HIDALGO,Particular,"AV. THIERS NO. 201, ANZURES, MIGUEL HIDALGO",19.4352792,-99.1805687,"19.4352792,-99.1805687"
65,Preescolar,NUEVO JARDIN DE NIÑOS DE MÉXICO,MATUTINO,CHRISTYIAN ANDERSEN NO. 506 Y POLANCO NO. 82,CHAPULTEPEC MORALES,MIGUEL HIDALGO,Particular,"CHRISTYIAN ANDERSEN NO. 506 Y POLANCO NO. 82, CHAPULTEPEC MORALES, MIGUEL HIDALGO",19.4303898,-99.1902382,"19.4303898,-99.1902382"
66,Preescolar,FRANCES PASTEUR,MATUTINO,SCHILLER NO. 139,POLANCO REFORMA,MIGUEL HIDALGO,Particular,"SCHILLER NO. 139, POLANCO REFORMA, MIGUEL HIDALGO",19.4362455,-99.1863856,"19.4362455,-99.1863856"
67,Preescolar,ALITAS,MATUTINO,RIO POO NO. 9,CUAUHTEMOC,CUAUHTEMOC,Particular,"RIO POO NO. 9, CUAUHTEMOC, CUAUHTEMOC",19.4330426,-99.1700985,"19.4330426,-99.1700985"
68,Preescolar,NIÑOS DE MÉXICO,MATUTINO,QUERETARO NO. 151,ROMA SUR,CUAUHTEMOC,Particular,"QUERETARO NO. 151, ROMA SUR, CUAUHTEMOC",19.4147251,-99.1613576,"19.4147251,-99.1613576"
69,Preescolar,CONDESA,MATUTINO,TLAXCALA NO. 105,ROMA SUR,CUAUHTEMOC,Particular,"TLAXCALA NO. 105, ROMA SUR, CUAUHTEMOC",19.407706,-99.166092,"19.407706,-99.166092"
70,Preescolar,"INSTITUTO ASOCIADOS AMADO NERVO, S.C.",MATUTINO,BAJIO NO. 220 Y 222,ROMA SUR,CUAUHTEMOC,Particular,"BAJIO NO. 220 Y 222, ROMA SUR, CUAUHTEMOC",19.4030687,-99.1673003,"19.4030687,-99.1673003"
71,Preescolar,BUCKINGHAM,MATUTINO,PETEN NO. 204,NARVARTE,BENITO JUAREZ,Particular,"PETEN NO. 204, NARVARTE, BENITO JUAREZ",19.3912289,-99.1526078,"19.3912289,-99.1526078"
72,Preescolar,COLEGIO MADRID,MATUTINO,PUENTE NO. 224,EJIDOS DE HUIPULCO,TLALPAN,Particular,"PUENTE NO. 224, EJIDOS DE HUIPULCO, TLALPAN",19.2871852,-99.1343003,"19.2871852,-99.1343003"
73,Preescolar,AMERICA,MATUTINO,RET. 15 DE JESUS GALINDO Y VILLA NO. 4,JARDIN BALBUENA,VENUSTIANO CARRANZA,Particular,"RET. 15 DE JESUS GALINDO Y VILLA NO. 4, JARDIN BALBUENA, VENUSTIANO CARRANZA",19.4123815,-99.0988336,"19.4123815,-99.0988336"
74,Preescolar,JARDIN DE NIÑOS ESTRELLA,MATUTINO,ACERINA No. 65,ESTRELLA,GUSTAVO A. MADERO,Particular,"ACERINA No. 65, ESTRELLA, GUSTAVO A. MADERO",19.4770579,-99.119535,"19.4770579,-99.119535"
75,Preescolar,JARDIN DE NIÑOS PICOLO,MATUTINO,J.L. BUFFON NO. 8,ANZURES,MIGUEL HIDALGO,Particular,"J.L. BUFFON NO. 8, ANZURES, MIGUEL HIDALGO",19.4334579,-99.1775543,"19.4334579,-99.1775543"
76,Preescolar,SACBE,MATUTINO,BOULEVARD CAPRI NO.  70,LOMAS ESTRELLA,IZTAPALAPA,Particular,"BOULEVARD CAPRI NO.  70, LOMAS ESTRELLA, IZTAPALAPA",19.3242049,-99.0936723,"19.3242049,-99.0936723"
77,Preescolar,MARIEL,MATUTINO,LAGUNA DE SAN CRISTOBAL NO. 63,ANAHUAC I,MIGUEL HIDALGO,Particular,"LAGUNA DE SAN CRISTOBAL NO. 63, ANAHUAC I, MIGUEL HIDALGO",19.4446095,-99.1766117,"19.4446095,-99.1766117"
78,Preescolar,COLEGIO SAN IGNACIO DE LOYOLA VIZCAINAS,MATUTINO,VIZCAINAS NO. 21,CENTRO,CUAUHTEMOC,Particular,"VIZCAINAS NO. 21, CENTRO, CUAUHTEMOC",19.4288347,-99.1404486,"19.4288347,-99.1404486"
79,Preescolar,COLEGIO CHIMALISTAC,MATUTINO,ARENAL NO. 36,HACIENDA DE GUADALUPE CHIMALISTAC,ALVARO OBREGON,Particular,"ARENAL NO. 36, HACIENDA DE GUADALUPE CHIMALISTAC, ALVARO OBREGON",19.3499235,-99.1801571,"19.3499235,-99.1801571"
80,Preescolar,COLEGIO BRITANICO,MATUTINO,ALABAMA NO. 224,NAPOLES,BENITO JUAREZ,Particular,"ALABAMA NO. 224, NAPOLES, BENITO JUAREZ",19.3887754,-99.1809185,"19.3887754,-99.1809185"
81,Preescolar,COLEGIO LESTONNAC,MATUTINO,CAFETALES NO. 140,TLALPAN,TLALPAN,Particular,"CAFETALES NO. 140, TLALPAN, TLALPAN",19.2957873,-99.114298,"19.2957873,-99.114298"
82,Preescolar,CENTRO DE EDUCACIÓN INFANTIL M.I.A.,MATUTINO,OKLAHOMA No. 138,NAPOLES,BENITO JUAREZ,Particular,"OKLAHOMA No. 138, NAPOLES, BENITO JUAREZ",19.3912245,-99.1796061,"19.3912245,-99.1796061"
83,Preescolar,JARDÍN DE NIÑOS MEXICANA DEL VALLE,MATUTINO,GABRIEL MANCERA NO. 1611,DEL VALLE,BENITO JUAREZ,Particular,"GABRIEL MANCERA NO. 1611, DEL VALLE, BENITO JUAREZ",19.3683839,-99.1687823,"19.3683839,-99.1687823"
84,Preescolar,CENTRO EDUCATIVO DEL VALLE,MATUTINO,MORENA NO. 423,DEL VALLE,BENITO JUAREZ,Particular,"MORENA NO. 423, DEL VALLE, BENITO JUAREZ",19.3986925,-99.1618735,"19.3986925,-99.1618735"
85,Preescolar,COLEGIO SUIZO DE MÉXICO,MATUTINO,NICOLAS SAN JUAN NO. 917,DEL VALLE,BENITO JUAREZ,Particular,"NICOLAS SAN JUAN NO. 917, DEL VALLE, BENITO JUAREZ",19.3856489,-99.1630429,"19.3856489,-99.1630429"
86,Preescolar,JARDIN DE NIÑOS VILLA INFANTIL,MATUTINO,SEGOVIA NO. 95,ALAMOS,BENITO JUAREZ,Particular,"SEGOVIA NO. 95, ALAMOS, BENITO JUAREZ",19.4003642,-99.1410554,"19.4003642,-99.1410554"
87,Preescolar,SARMIENTOCO ESCUELA BRITANICA AMERICANA,MATUTINO,INSURGENTES SUR No. 4040,TLALPAN,TLALPAN,Particular,"INSURGENTES SUR No. 4040, TLALPAN, TLALPAN",19.2867752,-99.1750243,"19.2867752,-99.1750243"
88,Preescolar,ESCUELA ARNOLD GESELL,MATUTINO,CARRIL NO 52,SANTA URSULA XITLA,TLALPAN,Particular,"CARRIL NO 52, SANTA URSULA XITLA, TLALPAN",19.2817373,-99.1799149,"19.2817373,-99.1799149"
89,Preescolar,CEYCA PRESCHOOL,MATUTINO,RIO NO. 04,TORIELLO GUERRA,TLALPAN,Particular,"RIO NO. 04, TORIELLO GUERRA, TLALPAN",19.295454,-99.1643622,"19.295454,-99.1643622"
90,Preescolar,SANTIAGO GALAS,MATUTINO,ALLENDE NO. 71,TLALPAN,TLALPAN,Particular,"ALLENDE NO. 71, TLALPAN, TLALPAN",19.2900207,-99.1645134,"19.2900207,-99.1645134"
91,Preescolar,COLEGIO VALLE DE LOS REYES,MATUTINO,AV. 5 DE MAYO No. 668,SAN LUIS TLAXIALTEMALCO,XOCHIMILCO,Particular,"AV. 5 DE MAYO No. 668, SAN LUIS TLAXIALTEMALCO, XOCHIMILCO",19.2556067,-99.0416299,"19.2556067,-99.0416299"
92,Preescolar,INSTITUTO ISABEL GRASSETEAU,MATUTINO,JAIME TORRES BODET NO. 166,SANTA MARIA LA RIBERA,CUAUHTEMOC,Particular,"JAIME TORRES BODET NO. 166, SANTA MARIA LA RIBERA, CUAUHTEMOC",19.4498038,-99.1576234,"19.4498038,-99.1576234"
93,Preescolar,JARDIN DE NIÑOS INSTITUTO RENACIMIENTO,MATUTINO,CHIHUAHUA NO. 107,ROMA SUR,CUAUHTEMOC,Particular,"CHIHUAHUA NO. 107, ROMA SUR, CUAUHTEMOC",19.4176835,-99.1591504,"19.4176835,-99.1591504"
94,Preescolar,JARDÍN DE NIÑOS VÍCTOR HUGO,MATUTINO,DR. BARRAGAN NO. 518,NARVARTE,BENITO JUAREZ,Particular,"DR. BARRAGAN NO. 518, NARVARTE, BENITO JUAREZ",19.4007995,-99.1469035,"19.4007995,-99.1469035"
95,Preescolar,CENTRO PEDAGOGICO VASCONCELOS,MATUTINO,MONTE ALBAN No. 380,VERTIZ NARVARTE,BENITO JUAREZ,Particular,"MONTE ALBAN No. 380, VERTIZ NARVARTE, BENITO JUAREZ",19.3840658,-99.1510853,"19.3840658,-99.1510853"
96,Preescolar,CAMPESTRE DE MÉXICO,MATUTINO,LA BOLSA NO. 456,CONTADERO,CUAJIMALPA DE MORELOS,Particular,"LA BOLSA NO. 456, CONTADERO, CUAJIMALPA DE MORELOS",19.3437164,-99.3011302,"19.3437164,-99.3011302"
97,Preescolar,COLEGIO ISRAELITA DE MÉXICO,MATUTINO,LOMA DEL RECUERDO NO. 44,LOMAS DE VISTA HERMOSA,CUAJIMALPA DE MORELOS,Particular,"LOMA DEL RECUERDO NO. 44, LOMAS DE VISTA HERMOSA, CUAJIMALPA DE MORELOS",19.3796757,-99.2699458,"19.3796757,-99.2699458"
98,Preescolar,JOHN DEWEY,MATUTINO,ARNESES NO. 64,MINERVA,IZTAPALAPA,Particular,"ARNESES NO. 64, MINERVA, IZTAPALAPA",19.3541309,-99.1102921,"19.3541309,-99.1102921"
99,Preescolar,EL RATÓN PÉREZ,MATUTINO,SAN PEDRO NO. 5,SANTA MARIA AZTAHUACAN,IZTAPALAPA,Particular,"SAN PEDRO NO. 5, SANTA MARIA AZTAHUACAN, IZTAPALAPA",19.3479712,-99.0301617,"19.3479712,-99.0301617"
100,Preescolar,ALBERTO GONZÁLEZ VALLE,MATUTINO,PRIV. CAPITAN RODRIGUEZ ARENAS NO. 315 B,AGRICOLA PANTITLAN,IZTACALCO,Particular,"PRIV. CAPITAN RODRIGUEZ ARENAS NO. 315 B, AGRICOLA PANTITLAN, IZTACALCO",19.417384,-99.0636931,"19.417384,-99.0636931"
101,Preescolar,DEDALITO,MATUTINO,AV. AZCAPOTZALCO NO. 783,REYES LOS,AZCAPOTZALCO,Particular,"AV. AZCAPOTZALCO NO. 783, REYES LOS, AZCAPOTZALCO",19.4863361,-99.1851849,"19.4863361,-99.1851849"
102,Preescolar,SANTA TERESITA,MATUTINO,PRIVADA SANTANDER NO. 45,SAN RAFAEL AMPLIACION,AZCAPOTZALCO,Particular,"PRIVADA SANTANDER NO. 45, SAN RAFAEL AMPLIACION, AZCAPOTZALCO",19.486304,-99.1874886,"19.486304,-99.1874886"
103,Preescolar,CENTRO EDUCATIVO LE JARDIN,MATUTINO,SALAVERRY NO. 779,LINDAVISTA,GUSTAVO A. MADERO,Particular,"SALAVERRY NO. 779, LINDAVISTA, GUSTAVO A. MADERO",19.4950919,-99.1323604,"19.4950919,-99.1323604"
104,Preescolar,JARDÍN DE NIÑOS BAMBI,MATUTINO,HACIENDA NARVARTE NO. 200,PRADOS DEL ROSARIO,AZCAPOTZALCO,Particular,"HACIENDA NARVARTE NO. 200, PRADOS DEL ROSARIO, AZCAPOTZALCO",19.5058493,-99.2096244,"19.5058493,-99.2096244"
105,Preescolar,EL MUNDO DEL SABER,MATUTINO,AV. DEL PARQUE MZA. 53 L.35,CUCHILLA DEL TESORO,GUSTAVO A. MADERO,Particular,"AV. DEL PARQUE MZA. 53 L.35, CUCHILLA DEL TESORO, GUSTAVO A. MADERO",19.4483667,-99.0575873,"19.4483667,-99.0575873"
106,Preescolar,CENTRO EDUCATIVO INFANTIL GANDHI,MATUTINO,OMEGA NO. 151,ROMERO DE TERREROS FRACCIONAMIENTO,COYOACAN,Particular,"OMEGA NO. 151, ROMERO DE TERREROS FRACCIONAMIENTO, COYOACAN",19.3415685,-99.1691966,"19.3415685,-99.1691966"
107,Preescolar,ESCUELA ACTIVA PAIDOS,MATUTINO,EMILIANO ZAPATA NO.60,LA CANDELARIA,COYOACAN,Particular,"EMILIANO ZAPATA NO.60, LA CANDELARIA, COYOACAN",19.3324638,-99.1474154,"19.3324638,-99.1474154"
108,Preescolar,A. B. C.,MATUTINO,AV. CENTRAL NO. 240,PRO  HOGAR,AZCAPOTZALCO,Particular,"AV. CENTRAL NO. 240, PRO  HOGAR, AZCAPOTZALCO",19.4760284,-99.1560584,"19.4760284,-99.1560584"
109,Preescolar,"COLEGIO ASPEN, S.C.",MATUTINO,INDEPENDENCIA NO. 30,SAN ALVARO,AZCAPOTZALCO,Particular,"INDEPENDENCIA NO. 30, SAN ALVARO, AZCAPOTZALCO",19.4599255,-99.1832177,"19.4599255,-99.1832177"
110,Preescolar,MAHATMA GANDHI,MATUTINO,EJIDO DE SAN LORENZO TEZONCO NO. 184,SAN FRANCISCO CULHUACAN,COYOACAN,Particular,"EJIDO DE SAN LORENZO TEZONCO NO. 184, SAN FRANCISCO CULHUACAN, COYOACAN",19.3328007,-99.1219458,"19.3328007,-99.1219458"
111,Preescolar,JARDIN DE NIÑOS INSTITUTO CULTURAL,MATUTINO,MIGUEL ANGEL DE QUEVEDO NO. 1190,PARQUE SAN ANDRES,COYOACAN,Particular,"MIGUEL ANGEL DE QUEVEDO NO. 1190, PARQUE SAN ANDRES, COYOACAN",19.3425643,-99.1455735,"19.3425643,-99.1455735"
112,Preescolar,"ESCUELA OKANTI, S.C.",MATUTINO,CERRO DEL HOMBRE NO.98,ROMERO DE TERREROS FRACCIONAMIENTO,COYOACAN,Particular,"CERRO DEL HOMBRE NO.98, ROMERO DE TERREROS FRACCIONAMIENTO, COYOACAN",19.3428136,-99.1768632,"19.3428136,-99.1768632"
113,Preescolar,COLEGIO MERICI,MATUTINO,LAS GRANJAS No. 45,PALO ALTO,CUAJIMALPA DE MORELOS,Particular,"LAS GRANJAS No. 45, PALO ALTO, CUAJIMALPA DE MORELOS",19.3831071,-99.2552818,"19.3831071,-99.2552818"
114,Preescolar,CENTRO DE DESARROLLO JUAN JACOBO ROUSSEAU,MATUTINO,VILLA DE ARAGON NO.58,VILLA DE ARAGON,GUSTAVO A. MADERO,Particular,"VILLA DE ARAGON NO.58, VILLA DE ARAGON, GUSTAVO A. MADERO",19.4675926,-99.062066,"19.4675926,-99.062066"
115,Preescolar,HANS CHRISTIAN ANDERSEN,MATUTINO,PERNAMBUCO NO. 790,LINDAVISTA,GUSTAVO A. MADERO,Particular,"PERNAMBUCO NO. 790, LINDAVISTA, GUSTAVO A. MADERO",19.491224,-99.1260083,"19.491224,-99.1260083"
116,Preescolar,EL COLEGIO BRITANICO (THE EDRON ACADEMY),MATUTINO,CALZADA DESIERTO DE LOS LEONES NO. 5907,OLIVAR DE LOS PADRES,ALVARO OBREGON,Particular,"CALZADA DESIERTO DE LOS LEONES NO. 5907, OLIVAR DE LOS PADRES, ALVARO OBREGON",19.3423702,-99.2259755,"19.3423702,-99.2259755"
117,Preescolar,LUIS PASTEUR,MATUTINO,RIO DE LA CADENA NO. 3,REAL DEL MORAL,IZTAPALAPA,Particular,"RIO DE LA CADENA NO. 3, REAL DEL MORAL, IZTAPALAPA",19.3893222,-99.083277,"19.3893222,-99.083277"
118,Preescolar,NIÑO ARTILLERO,MATUTINO,LINO MERINO NO. 803,JUAN ESCUTIA,IZTAPALAPA,Particular,"LINO MERINO NO. 803, JUAN ESCUTIA, IZTAPALAPA",19.3856574,-99.0329467,"19.3856574,-99.0329467"
119,Preescolar,COLEGIO CONCEPCION CABRERA DE ARMIDA,MATUTINO,SUR 103 NO. 227,HEROES DE CHURUBUSCO,IZTAPALAPA,Particular,"SUR 103 NO. 227, HEROES DE CHURUBUSCO, IZTAPALAPA",19.359474,-99.1201726,"19.359474,-99.1201726"
120,Preescolar,COLEGIO LOWELL,MATUTINO,SANTIAGO No. 451,SAN JERONIMO LIDICE,LA MAGDALENA CONTRERAS,Particular,"SANTIAGO No. 451, SAN JERONIMO LIDICE, LA MAGDALENA CONTRERAS",19.3190854,-99.237542,"19.3190854,-99.237542"
121,Preescolar,JARDIN DE NIÑOS OLI,MATUTINO,SAN FRANCISCO NO. 419,SAN FRANCISCO,LA MAGDALENA CONTRERAS,Particular,"SAN FRANCISCO NO. 419, SAN FRANCISCO, LA MAGDALENA CONTRERAS",19.3101548,-99.2399893,"19.3101548,-99.2399893"
122,Preescolar,INSTITUTO ASUNCION DE MÉXICO,MATUTINO,CALZADA DE LAS AGUILAS NO. 181 Y 219,LAS AGUILAS,ALVARO OBREGON,Particular,"CALZADA DE LAS AGUILAS NO. 181 Y 219, LAS AGUILAS, ALVARO OBREGON",19.3600114,-99.1985152,"19.3600114,-99.1985152"
123,Preescolar,COLEGIO PRINCETON DEL SUR,MATUTINO,AV. DE LAS FUENTES NO. 214,JARDINES DEL PEDREGAL,ALVARO OBREGON,Particular,"AV. DE LAS FUENTES NO. 214, JARDINES DEL PEDREGAL, ALVARO OBREGON",19.3267597,-99.2055358,"19.3267597,-99.2055358"
124,Preescolar,KINDER KRISTY,MATUTINO,GIOTTO NO. 94,ALFONSO XIII,ALVARO OBREGON,Particular,"GIOTTO NO. 94, ALFONSO XIII, ALVARO OBREGON",19.3753422,-99.1936464,"19.3753422,-99.1936464"
125,Preescolar,LEOPOLDO KIEL,MATUTINO,CARLOS DOLCI NO. 42,ALFONSO XIII,ALVARO OBREGON,Particular,"CARLOS DOLCI NO. 42, ALFONSO XIII, ALVARO OBREGON",19.3751522,-99.1947643,"19.3751522,-99.1947643"
126,Preescolar,D'DEZA,MATUTINO,AVENIDA SANTA LUCIA NO.965,COLINAS DEL SUR,ALVARO OBREGON,Particular,"AVENIDA SANTA LUCIA NO.965, COLINAS DEL SUR, ALVARO OBREGON",19.3686397,-99.2263215,"19.3686397,-99.2263215"
127,Preescolar,LICEO MEXICANO JAPONES,MATUTINO,CAMINO SANTA TERESA NO. 1500,JARDINES DEL PEDREGAL,ALVARO OBREGON,Particular,"CAMINO SANTA TERESA NO. 1500, JARDINES DEL PEDREGAL, ALVARO OBREGON",19.3090831,-99.2117564,"19.3090831,-99.2117564"
128,Preescolar,MÉXICO NUEVO,MATUTINO,ESTAFETAS NO. 51,POSTAL,BENITO JUAREZ,Particular,"ESTAFETAS NO. 51, POSTAL, BENITO JUAREZ",19.3901761,-99.1407131,"19.3901761,-99.1407131"
129,Preescolar,ESCUELA MANUEL ACOSTA,MATUTINO,RIO PANUCO NO. 71,CUAUHTEMOC,CUAUHTEMOC,Particular,"RIO PANUCO NO. 71, CUAUHTEMOC, CUAUHTEMOC",19.4313607,-99.1660622,"19.4313607,-99.1660622"
130,Preescolar,JARDIN DE NIÑOS ELIZABETH BROCK,MATUTINO,SERAPIO RENDON NO. 97,SAN RAFAEL,CUAUHTEMOC,Particular,"SERAPIO RENDON NO. 97, SAN RAFAEL, CUAUHTEMOC",19.4356035,-99.1610967,"19.4356035,-99.1610967"
131,Preescolar,COLEGIO NUEVA INFANCIA,MATUTINO,RIO SENA NO. 51,CUAUHTEMOC,CUAUHTEMOC,Particular,"RIO SENA NO. 51, CUAUHTEMOC, CUAUHTEMOC",19.4316662,-99.1669857,"19.4316662,-99.1669857"
132,Preescolar,COLEGIO JOSÉ MARÍA MORELOS Y PAVON,MATUTINO,SAN FRANCISCO DE ASIS NO. 429,GRANJAS ESTRELLA,IZTAPALAPA,Particular,"SAN FRANCISCO DE ASIS NO. 429, GRANJAS ESTRELLA, IZTAPALAPA",19.322411,-99.087584,"19.322411,-99.087584"
133,Preescolar,JARDIN DE NIÑOS ESTRELLA,MATUTINO,VENTURINA NO. 75,ESTRELLA,GUSTAVO A. MADERO,Particular,"VENTURINA NO. 75, ESTRELLA, GUSTAVO A. MADERO",19.4752626,-99.1138186,"19.4752626,-99.1138186"
134,Preescolar,CENTRO EDUCATIVO LUCECITAS,MATUTINO,NORTE 66 A NO. 7815,SALVADOR DIAZ MIRON,GUSTAVO A. MADERO,Particular,"NORTE 66 A NO. 7815, SALVADOR DIAZ MIRON, GUSTAVO A. MADERO",19.4872634,-99.100418,"19.4872634,-99.100418"
135,Preescolar,MARIA LUISA GODEAU,MATUTINO,5 DE FEBRERO NO. 8,ARAGON,GUSTAVO A. MADERO,Particular,"5 DE FEBRERO NO. 8, ARAGON, GUSTAVO A. MADERO",19.4841078,-99.1130291,"19.4841078,-99.1130291"
136,Preescolar,COLEGIO WILLIAMS,MATUTINO,PRESA REVENTADA NO. 53,SAN JERONIMO LIDICE,LA MAGDALENA CONTRERAS,Particular,"PRESA REVENTADA NO. 53, SAN JERONIMO LIDICE, LA MAGDALENA CONTRERAS",19.3211787,-99.2360649,"19.3211787,-99.2360649"
137,Preescolar,ESCUELA SIERRA NEVADA,MATUTINO,REFORMA NO. 715,LOMAS DE CHAPULTEPEC,MIGUEL HIDALGO,Particular,"REFORMA NO. 715, LOMAS DE CHAPULTEPEC, MIGUEL HIDALGO",19.4239547,-99.2132969,"19.4239547,-99.2132969"
138,Preescolar,INSTITUTO HISPANO INGLES DE MÉXICO,MATUTINO,GENERAL CANO NO. 153,SAN MIGUEL CHAPULTEPEC,MIGUEL HIDALGO,Particular,"GENERAL CANO NO. 153, SAN MIGUEL CHAPULTEPEC, MIGUEL HIDALGO",19.4085888,-99.1859242,"19.4085888,-99.1859242"
139,Preescolar,COLEGIO DE EDUCACIÓN INTEGRAL,MATUTINO,CAMINO A SAN PEDRO NO. 44,LA JOYA,TLALPAN,Particular,"CAMINO A SAN PEDRO NO. 44, LA JOYA, TLALPAN",,,
140,Preescolar,COLEGIO DEL BOSQUE,MATUTINO,BOSQUES DE HUIZACHES No. 3,BOSQUES DE LAS LOMAS,CUAJIMALPA DE MORELOS,Particular,"BOSQUES DE HUIZACHES No. 3, BOSQUES DE LAS LOMAS, CUAJIMALPA DE MORELOS",19.3889883,-99.2577837,"19.3889883,-99.2577837"
141,Preescolar,JARDÍN DE NIÑOS IGNACIO M. ALTAMIRANO,MATUTINO,PROSPERIDAD NO. 91,ESCANDON,MIGUEL HIDALGO,Particular,"PROSPERIDAD NO. 91, ESCANDON, MIGUEL HIDALGO",19.400359,-99.1757376,"19.400359,-99.1757376"
142,Preescolar,COLEGIO ALEXANDER BAIN,MATUTINO,BARRANCA DE PILARES NO. 23,TLACOPAC,ALVARO OBREGON,Particular,"BARRANCA DE PILARES NO. 23, TLACOPAC, ALVARO OBREGON",,,
143,Preescolar,RENE DESCARTES,MATUTINO,VIVEROS NO. 33,SANTA MARIA TOMATLAN,IZTAPALAPA,Particular,"VIVEROS NO. 33, SANTA MARIA TOMATLAN, IZTAPALAPA",19.3220183,-99.0984107,"19.3220183,-99.0984107"
144,Preescolar,HOMBRES DEL FUTURO,MATUTINO,PALMAR MZ. 198 LT. 22,SANTIAGO ACAHUALTEPEC 2A AMPLIACION,IZTAPALAPA,Particular,"PALMAR MZ. 198 LT. 22, SANTIAGO ACAHUALTEPEC 2A AMPLIACION, IZTAPALAPA",19.3587668,-99.0023298,"19.3587668,-99.0023298"
145,Preescolar,CENTRO DE ATENCION ESCOLAR ESTRELLITA,MATUTINO,JAIME NUNO S/N MZ. 145 LT. 13,IXTLAHUACAN,IZTAPALAPA,Particular,"JAIME NUNO S/N MZ. 145 LT. 13, IXTLAHUACAN, IZTAPALAPA",19.3385303,-98.997699,"19.3385303,-98.997699"
146,Preescolar,LICEO MAGIC CENTER,MATUTINO,ENRIQUE A. ENRIQUEZ NO. 20,CONSTITUCION 1917,IZTAPALAPA,Particular,"ENRIQUE A. ENRIQUEZ NO. 20, CONSTITUCION 1917, IZTAPALAPA",19.3512883,-99.0544893,"19.3512883,-99.0544893"
147,Preescolar,OVIDE DECROLY,MATUTINO,SANTA TERESA NO. 142,TEPALCATES,IZTAPALAPA,Particular,"SANTA TERESA NO. 142, TEPALCATES, IZTAPALAPA",19.3890111,-99.0552165,"19.3890111,-99.0552165"
148,Preescolar,INSTITUTO PEDAGOGICO BILINGUE KO-KLAT,MATUTINO,NAVOJOA NO. 114,SAN LORENZO XICOTENCATL,IZTAPALAPA,Particular,"NAVOJOA NO. 114, SAN LORENZO XICOTENCATL, IZTAPALAPA",19.3820467,-99.0264803,"19.3820467,-99.0264803"
149,Preescolar,HIDALGO,MATUTINO,AQUILES SERDAN MZ. 58 LT. 653,SANTA MARIA AZTAHUACAN,IZTAPALAPA,Particular,"AQUILES SERDAN MZ. 58 LT. 653, SANTA MARIA AZTAHUACAN, IZTAPALAPA",19.3495089,-99.0357069,"19.3495089,-99.0357069"
150,Preescolar,CORAZÓN DE NIÑO,MATUTINO,BENITO JUÁREZ NO. 116,PROGRESISTA,IZTAPALAPA,Particular,"BENITO JUÁREZ NO. 116, PROGRESISTA, IZTAPALAPA",19.3579818,-99.0661792,"19.3579818,-99.0661792"
151,Preescolar,COLEGIO VINCENT W. VAN GOGH,MATUTINO,GOBERNADOR ZULOAGA NO. 14,SAN MIGUEL AMPLIACION,IZTAPALAPA,Particular,"GOBERNADOR ZULOAGA NO. 14, SAN MIGUEL AMPLIACION, IZTAPALAPA",19.3523921,-99.0671301,"19.3523921,-99.0671301"
152,Preescolar,CIRCULO INFANTIL,MATUTINO,CDA. SAN JOSE NO. 24,MAGDALENA ATLAZOLPA,IZTAPALAPA,Particular,"CDA. SAN JOSE NO. 24, MAGDALENA ATLAZOLPA, IZTAPALAPA",19.3750562,-99.1119973,"19.3750562,-99.1119973"
153,Preescolar,COLEGIO ANDRÉS OSUNA,MATUTINO,BIOGRAFOS NO. 23,EL SIFON,IZTAPALAPA,Particular,"BIOGRAFOS NO. 23, EL SIFON, IZTAPALAPA",19.371045,-99.109075,"19.371045,-99.109075"
154,Preescolar,GULLIVER,MATUTINO,FRANCISCO JAVIER MINA MZ. 33 LT. 19,SANTA CRUZ MEYEHUALCO,IZTAPALAPA,Particular,"FRANCISCO JAVIER MINA MZ. 33 LT. 19, SANTA CRUZ MEYEHUALCO, IZTAPALAPA",19.3475943,-99.0326506,"19.3475943,-99.0326506"
155,Preescolar,IMAGINA,MATUTINO,AV. 5 DE MAYO NO. 149,SAN IGNACIO,IZTAPALAPA,Particular,"AV. 5 DE MAYO NO. 149, SAN IGNACIO, IZTAPALAPA",19.362292,-99.0972552,"19.362292,-99.0972552"
156,Preescolar,INSTITUTO VALLADOLID,MATUTINO,5 DE MAYO NO. 3,CULHUACAN,IZTAPALAPA,Particular,"5 DE MAYO NO. 3, CULHUACAN, IZTAPALAPA",19.3419547,-99.1014146,"19.3419547,-99.1014146"
157,Preescolar,PITAGORAS,MATUTINO,MONTES URALES MZ. 2 LT. 21,GRANJAS ESTRELLA,IZTAPALAPA,Particular,"MONTES URALES MZ. 2 LT. 21, GRANJAS ESTRELLA, IZTAPALAPA",19.3295733,-99.0888935,"19.3295733,-99.0888935"
158,Preescolar,MIGUEL LERDO DE TEJADA,MATUTINO,PEDRO LUIS OGAZON NO. 73,VALLEJO,GUSTAVO A. MADERO,Particular,"PEDRO LUIS OGAZON NO. 73, VALLEJO, GUSTAVO A. MADERO",19.4643573,-99.1271699,"19.4643573,-99.1271699"
159,Preescolar,ANA PAVLOVA,MATUTINO,NORTE 1-J NO. 4813,PANAMERICANA,GUSTAVO A. MADERO,Particular,"NORTE 1-J NO. 4813, PANAMERICANA, GUSTAVO A. MADERO",19.476424,-99.1409671,"19.476424,-99.1409671"
160,Preescolar,COLEGIO MARGARITA MAZA DE JUÁREZ,MATUTINO,NORTE 7 A NO. 4704,DEFENSORES DE LA REPUBLICA,GUSTAVO A. MADERO,Particular,"NORTE 7 A NO. 4704, DEFENSORES DE LA REPUBLICA, GUSTAVO A. MADERO",19.4759991,-99.1448153,"19.4759991,-99.1448153"
161,Preescolar,JARDÍN DE NIÑOS AMIGUITO,MATUTINO,VILLA NETZAHUALCOYOTL No. 33,VILLA DE ARAGON,GUSTAVO A. MADERO,Particular,"VILLA NETZAHUALCOYOTL No. 33, VILLA DE ARAGON, GUSTAVO A. MADERO",19.4794463,-99.1178276,"19.4794463,-99.1178276"
162,Preescolar,FELIPE FRANCO,MATUTINO,GUADALUPE VICTORIA No. 52,CUAUTEPEC DE MADERO,GUSTAVO A. MADERO,Particular,"GUADALUPE VICTORIA No. 52, CUAUTEPEC DE MADERO, GUSTAVO A. MADERO",19.5426004,-99.1384111,"19.5426004,-99.1384111"
163,Preescolar,HUITZILIN,MATUTINO,ESTADO DE NAYARIT No. 15,LA PROVIDENCIA,GUSTAVO A. MADERO,Particular,"ESTADO DE NAYARIT No. 15, LA PROVIDENCIA, GUSTAVO A. MADERO",19.4799529,-99.0714487,"19.4799529,-99.0714487"
164,Preescolar,LITTLE NASHVILLE,MATUTINO,CALLE 665 NO. 9,CTM SAN JUAN DE ARAGON,GUSTAVO A. MADERO,Particular,"CALLE 665 NO. 9, CTM SAN JUAN DE ARAGON, GUSTAVO A. MADERO",19.4507442,-99.0580081,"19.4507442,-99.0580081"
165,Preescolar,JUANA DE ASBAJE,MATUTINO,IZTAPALAPA MZ. 153 LT. 1578,VALLE DE SAN LORENZO,IZTAPALAPA,Particular,"IZTAPALAPA MZ. 153 LT. 1578, VALLE DE SAN LORENZO, IZTAPALAPA",19.2991932,-99.0778438,"19.2991932,-99.0778438"
166,Preescolar,COLEGIO RAFAEL ALBERTI,MATUTINO,CEDROS NO. 144,SAN ANDRES,AZCAPOTZALCO,Particular,"CEDROS NO. 144, SAN ANDRES, AZCAPOTZALCO",19.491693,-99.178378,"19.491693,-99.178378"
167,Preescolar,COLEGIO UNIVERSO,MATUTINO,FUNDIDORES NO.131 Y METALURGICOS NO.132,TRABAJADORES DEL HIERRO,AZCAPOTZALCO,Particular,"FUNDIDORES NO.131 Y METALURGICOS NO.132, TRABAJADORES DEL HIERRO, AZCAPOTZALCO",19.4782488,-99.1513295,"19.4782488,-99.1513295"
168,Preescolar,CENTRO EDUCATIVO PETIT BONHOMME,MATUTINO,RETORNO 3 NO. 29,AVANTE,COYOACAN,Particular,"RETORNO 3 NO. 29, AVANTE, COYOACAN",19.3330427,-99.1397391,"19.3330427,-99.1397391"
169,Preescolar,COLEGIO ANGLO MEXICANO DE COYOACÁN,MATUTINO,AV. RIO CHURUBUSCO NO. 405,PASEOS DE TAXQUEÑA,COYOACAN,Particular,"AV. RIO CHURUBUSCO NO. 405, PASEOS DE TAXQUEÑA, COYOACAN",19.3505858,-99.1214968,"19.3505858,-99.1214968"
170,Preescolar,EDELWEISS,MATUTINO,LONDRES No. 310,DEL CARMEN,COYOACAN,Particular,"LONDRES No. 310, DEL CARMEN, COYOACAN",19.3543225,-99.1648245,"19.3543225,-99.1648245"
171,Preescolar,CENTRO PEDAGOGICO NIÑO FELIZ,MATUTINO,CALZADA DE LAS BOMBAS NO. 501,CAMPESTRE COYOACAN,COYOACAN,Particular,"CALZADA DE LAS BOMBAS NO. 501, CAMPESTRE COYOACAN, COYOACAN",19.311786,-99.117408,"19.311786,-99.117408"
172,Preescolar,MONTE OLIMPO,MATUTINO,AMATENANGO MZA. 11 LT. 28,RESIDENCIAL CAFETALES,COYOACAN,Particular,"AMATENANGO MZA. 11 LT. 28, RESIDENCIAL CAFETALES, COYOACAN",19.3127082,-99.1109414,"19.3127082,-99.1109414"
173,Preescolar,COLEGIO ST. PAUL,MATUTINO,PEDRO SAINZ DE BARANDA NO. 211,LOS CIPRESES,COYOACAN,Particular,"PEDRO SAINZ DE BARANDA NO. 211, LOS CIPRESES, COYOACAN",19.3194123,-99.1256063,"19.3194123,-99.1256063"
174,Preescolar,JARDIN DE NIÑOS WINI PU,MATUTINO,FRANCISCO ZARCO NO. 79,BEJERO,ALVARO OBREGON,Particular,"FRANCISCO ZARCO NO. 79, BEJERO, ALVARO OBREGON",19.380661,-99.2469626,"19.380661,-99.2469626"
175,Preescolar,JARDIN DE NIÑOS HARVEY,MATUTINO,TULIPAN S/N MZA. 13 LT. 61,LOS REYES,TLAHUAC,Particular,"TULIPAN S/N MZA. 13 LT. 61, LOS REYES, TLAHUAC",19.2647664,-99.0038051,"19.2647664,-99.0038051"
176,Preescolar,COMUNIDAD EDUCATIVA OWEN,MATUTINO,COCOTEROS NO. 190,NUEVA SANTA MARIA,AZCAPOTZALCO,Particular,"COCOTEROS NO. 190, NUEVA SANTA MARIA, AZCAPOTZALCO",19.4661779,-99.1662326,"19.4661779,-99.1662326"
177,Preescolar,JARDIN DE NIÑOS LA ABEJITA,MATUTINO,TORONJA NO. 220,NUEVA SANTA MARIA,AZCAPOTZALCO,Particular,"TORONJA NO. 220, NUEVA SANTA MARIA, AZCAPOTZALCO",19.4667831,-99.172391,"19.4667831,-99.172391"
178,Preescolar,DREAM GARDEN KINDER,MATUTINO,LOMA DEL PARQUE NO. 122,LOMAS DE VISTA HERMOSA,CUAJIMALPA DE MORELOS,Particular,"LOMA DEL PARQUE NO. 122, LOMAS DE VISTA HERMOSA, CUAJIMALPA DE MORELOS",19.3759707,-99.2756858,"19.3759707,-99.2756858"
179,Preescolar,JARDÍN DE NIÑOS CARMEN'S,MATUTINO,SUR 121 NO. 2508,GABRIEL RAMOS MILLAN AMPLIACION,IZTACALCO,Particular,"SUR 121 NO. 2508, GABRIEL RAMOS MILLAN AMPLIACION, IZTACALCO",19.3961844,-99.1039752,"19.3961844,-99.1039752"
180,Preescolar,ERMILO ABREU GOMEZ,MATUTINO,SUR 26 B NO. 19,AGRICOLA ORIENTAL,IZTACALCO,Particular,"SUR 26 B NO. 19, AGRICOLA ORIENTAL, IZTACALCO",19.385518,-99.0681571,"19.385518,-99.0681571"
181,Preescolar,CHRISTIAN ANDERSEN,MATUTINO,SUR 28 A No. 20,AGRICOLA ORIENTAL,IZTACALCO,Particular,"SUR 28 A No. 20, AGRICOLA ORIENTAL, IZTACALCO",19.3844303,-99.0666711,"19.3844303,-99.0666711"
182,Preescolar,EL CARACOLITO AZUL,MATUTINO,SUR 181 NO. 2214,GABRIEL RAMOS MILLAN,IZTACALCO,Particular,"SUR 181 NO. 2214, GABRIEL RAMOS MILLAN, IZTACALCO",19.3921752,-99.0913923,"19.3921752,-99.0913923"
183,Preescolar,CENTRO EDUCATIVO MODERNO NITA MIRANDA,MATUTINO,TERRAPLEN DE RIO FRIO NO.144,LA CRUZ,IZTACALCO,Particular,"TERRAPLEN DE RIO FRIO NO.144, LA CRUZ, IZTACALCO",19.4035811,-99.1177667,"19.4035811,-99.1177667"
184,Preescolar,PLAN DE AYALA,MATUTINO,MORELOS NO. 118,SAN PABLO OZTOTEPEC,MILPA ALTA,Particular,"MORELOS NO. 118, SAN PABLO OZTOTEPEC, MILPA ALTA",19.1851208,-99.0708012,"19.1851208,-99.0708012"
185,Preescolar,JARDIN DE NIÑOS TECELTICAN,MATUTINO,"SEIS S/N. MZA. 167, LT.59",TEPEPAN AMPLIACION,XOCHIMILCO,Particular,"SEIS S/N. MZA. 167, LT.59, TEPEPAN AMPLIACION, XOCHIMILCO",19.2346997,-99.0965819,"19.2346997,-99.0965819"
186,Preescolar,JARDIN DE NIÑOS MARTÍN DE LA CRUZ,MATUTINO,AV. DE LAS GARGOLAS NO. 110,JARDINES DEL SUR FRACCIONAMIENTO,XOCHIMILCO,Particular,"AV. DE LAS GARGOLAS NO. 110, JARDINES DEL SUR FRACCIONAMIENTO, XOCHIMILCO",19.2590255,-99.1147464,"19.2590255,-99.1147464"
187,Preescolar,COLEGIO ASTURIAS,MATUTINO,SUR 69 NO. 3010,ASTURIAS,CUAUHTEMOC,Particular,"SUR 69 NO. 3010, ASTURIAS, CUAUHTEMOC",19.4048368,-99.1298991,"19.4048368,-99.1298991"
188,Preescolar,"THE MONTESSORI AMERICAN SCHOOL, S.C.",MATUTINO,PASEO DE LA REFORMA NO. 1210,LOMAS DE CHAPULTEPEC,MIGUEL HIDALGO,Particular,"PASEO DE LA REFORMA NO. 1210, LOMAS DE CHAPULTEPEC, MIGUEL HIDALGO",19.4191246,-99.2176121,"19.4191246,-99.2176121"
189,Preescolar,CENTRO EDUCATIVO INFANTIL SIGLO XXI,MATUTINO,OMETUSCO NO. 43,HIPODROMO DE LA CONDESA,CUAUHTEMOC,Particular,"OMETUSCO NO. 43, HIPODROMO DE LA CONDESA, CUAUHTEMOC",19.4074798,-99.1735207,"19.4074798,-99.1735207"
190,Preescolar,ESTANCIA INFANTIL KIPLING,MATUTINO,CAMPO TORTUGUERO NO. 97,REYNOSA TAMAULIPAS,AZCAPOTZALCO,Particular,"CAMPO TORTUGUERO NO. 97, REYNOSA TAMAULIPAS, AZCAPOTZALCO",19.4941834,-99.186206,"19.4941834,-99.186206"
191,Preescolar,APRENDIENDO A APRENDER,MATUTINO,PINOS No. 29,DEL BOSQUE,GUSTAVO A. MADERO,Particular,"PINOS No. 29, DEL BOSQUE, GUSTAVO A. MADERO",19.4763459,-99.0696583,"19.4763459,-99.0696583"
192,Preescolar,PRINCIPE DEL BOSQUE,MATUTINO,RIO ARGELIA MZ. 45 LT. 10,VALLE DE SAN LORENZO,IZTAPALAPA,Particular,"RIO ARGELIA MZ. 45 LT. 10, VALLE DE SAN LORENZO, IZTAPALAPA",19.3002031,-99.0747783,"19.3002031,-99.0747783"
193,Preescolar,LAS ABEJITAS,MATUTINO,PRIV. STA CRUZ NO.1 MZ. 63 LT. 29-A,LOMAS SAN LORENZO,IZTAPALAPA,Particular,"PRIV. STA CRUZ NO.1 MZ. 63 LT. 29-A, LOMAS SAN LORENZO, IZTAPALAPA",19.3189048,-99.0702789,"19.3189048,-99.0702789"
194,Preescolar,LICEO HERBART S.C.,MATUTINO,INSURGENTES NO. 165,LAS PEÑAS AMPLIACION,IZTAPALAPA,Particular,"INSURGENTES NO. 165, LAS PEÑAS AMPLIACION, IZTAPALAPA",19.338725,-99.0494678,"19.338725,-99.0494678"
195,Preescolar,LA MARCHA DE LAS LETRAS,MATUTINO,CALLE 4 MZ. 4 LT. 10,JOSE LOPEZ PORTILLO,IZTAPALAPA,Particular,"CALLE 4 MZ. 4 LT. 10, JOSE LOPEZ PORTILLO, IZTAPALAPA",19.3105107,-99.080367,"19.3105107,-99.080367"
196,Preescolar,JARDÍN DE NIÑOS LOS NIÑOS DE LA SALLE,MATUTINO,16 DE SEPTIEMBRE NO. 133,SAN ANDRES TOTOLTEPEC,TLALPAN,Particular,"16 DE SEPTIEMBRE NO. 133, SAN ANDRES TOTOLTEPEC, TLALPAN",19.2514528,-99.1721759,"19.2514528,-99.1721759"
197,Preescolar,COLEGIO INGLES DURKHEIM,MATUTINO,JOSE MA. DEL CASTILLO VELASCO NO. 65,PERIODISTA,MIGUEL HIDALGO,Particular,"JOSE MA. DEL CASTILLO VELASCO NO. 65, PERIODISTA, MIGUEL HIDALGO",19.4483165,-99.2176205,"19.4483165,-99.2176205"
198,Preescolar,COLEGIO VERDI,MATUTINO,NORTE 13 NO. 291,MOCTEZUMA 2A SECCION,VENUSTIANO CARRANZA,Particular,"NORTE 13 NO. 291, MOCTEZUMA 2A SECCION, VENUSTIANO CARRANZA",19.4259343,-99.0942782,"19.4259343,-99.0942782"
199,Preescolar,JARDÍN DE NIÑOS COLIBRI,MATUTINO,AV. FRANCISCO MORAZAN NO. 87,ZARAGOZA,VENUSTIANO CARRANZA,Particular,"AV. FRANCISCO MORAZAN NO. 87, ZARAGOZA, VENUSTIANO CARRANZA",19.4149762,-99.0948022,"19.4149762,-99.0948022"
200,Preescolar,MI AMIGO WINNIE POOH,MATUTINO,ARROYO NUEVO NO. 38,LA ESCALERA,GUSTAVO A. MADERO,Particular,"ARROYO NUEVO NO. 38, LA ESCALERA, GUSTAVO A. MADERO",19.5097599,-99.1377724,"19.5097599,-99.1377724"
201,Preescolar,INSTITUTO WISDOM,MATUTINO,MARMOLEJO NO. 103,CERRO DE LA ESTRELLA,IZTAPALAPA,Particular,"MARMOLEJO NO. 103, CERRO DE LA ESTRELLA, IZTAPALAPA",19.3232074,-99.0776214,"19.3232074,-99.0776214"
202,Preescolar,ASHMONT SCHOOL,MATUTINO,AV. PROLONG. DIVISION DEL NORTE NO. 4284,NUEVA ORIENTAL,TLALPAN,Particular,"AV. PROLONG. DIVISION DEL NORTE NO. 4284, NUEVA ORIENTAL, TLALPAN",19.2991492,-99.1310592,"19.2991492,-99.1310592"
203,Preescolar,COLEGIO JULIO TORRI,MATUTINO,AV. QUETZAL NO. 28,EL PARAISO,IZTAPALAPA,Particular,"AV. QUETZAL NO. 28, EL PARAISO, IZTAPALAPA",19.3742956,-99.0340852,"19.3742956,-99.0340852"
204,Preescolar,INSTITUTO BOSCHETTI,MATUTINO,ERMITA IZTAPALAPA NO. 2166,CONSTITUCION 1917,IZTAPALAPA,Particular,"ERMITA IZTAPALAPA NO. 2166, CONSTITUCION 1917, IZTAPALAPA",19.3482626,-99.0683066,"19.3482626,-99.0683066"
205,Preescolar,COLEGIO DONALD WOODS WINNICOTT,MATUTINO,PLAYA CALETA No. 327,REFORMA IZTACCIHUATL NORTE,IZTACALCO,Particular,"PLAYA CALETA No. 327, REFORMA IZTACCIHUATL NORTE, IZTACALCO",19.3864222,-99.1299117,"19.3864222,-99.1299117"
206,Preescolar,JARDÍN DE NIÑOS BUCKINGHAM,MATUTINO,ORIENTE 237 NO.464,AGRICOLA ORIENTAL,IZTACALCO,Particular,"ORIENTE 237 NO.464, AGRICOLA ORIENTAL, IZTACALCO",19.3905279,-99.0768768,"19.3905279,-99.0768768"
207,Preescolar,COLEGIO LA  MONARCA,MATUTINO,ROQUE VELASCO CERON NO. 55,CRISTO REY,ALVARO OBREGON,Particular,"ROQUE VELASCO CERON NO. 55, CRISTO REY, ALVARO OBREGON",19.3891668,-99.2022147,"19.3891668,-99.2022147"
208,Preescolar,CENTRO DE FORMACION ESCOLAR BANTING,MATUTINO,CUAUHTEMOC S/N. MZA. 3 LOTES 4 Y 5,AJUSCO,COYOACAN,Particular,"CUAUHTEMOC S/N. MZA. 3 LOTES 4 Y 5, AJUSCO, COYOACAN",19.2949042,-99.1471278,"19.2949042,-99.1471278"
209,Preescolar,COLEGIO JACKSNOVILLE,MATUTINO,GRAL. FRONTERA NO. 46,TIZAPAN,ALVARO OBREGON,Particular,"GRAL. FRONTERA NO. 46, TIZAPAN, ALVARO OBREGON",19.3417466,-99.195865,"19.3417466,-99.195865"
210,Preescolar,SAKBÉ KIDZ,MATUTINO,CHICARAS NO. 35,EL CARACOL,COYOACAN,Particular,"CHICARAS NO. 35, EL CARACOL, COYOACAN",19.304451,-99.161745,"19.304451,-99.161745"
211,Preescolar,CENTRO DE ASISTENCIA PREESCOLAR KEIKO,MATUTINO,GRAN BAHAMA NO.16,LA MARTINICA,ALVARO OBREGON,Particular,"GRAN BAHAMA NO.16, LA MARTINICA, ALVARO OBREGON",,,
212,Preescolar,AMEYALLI,MATUTINO,REFORMA AGRARIA NO. 12,REFORMA POLITICA,IZTAPALAPA,Particular,"REFORMA AGRARIA NO. 12, REFORMA POLITICA, IZTAPALAPA",19.3367264,-99.0318687,"19.3367264,-99.0318687"
213,Preescolar,JARDIN DE NIÑOS WILLIE,MATUTINO,UNION No. 15,LA FAMA,TLALPAN,Particular,"UNION No. 15, LA FAMA, TLALPAN",19.2902089,-99.1779958,"19.2902089,-99.1779958"
214,Preescolar,CONTINENTAL LEXINGTON INSTITUTE,MATUTINO,HACIENDA DE SAN NICOLAS TOLENTINO NO. 13,EJIDOS DE HUIPULCO,TLALPAN,Particular,"HACIENDA DE SAN NICOLAS TOLENTINO NO. 13, EJIDOS DE HUIPULCO, TLALPAN",19.2946703,-99.1358921,"19.2946703,-99.1358921"
215,Preescolar,INSTITUTO DE LOS NIÑOS,MATUTINO,AMADO NERVO No. 70,MODERNA,BENITO JUAREZ,Particular,"AMADO NERVO No. 70, MODERNA, BENITO JUAREZ",19.3944985,-99.1370434,"19.3944985,-99.1370434"
216,Preescolar,YUM KAX,MATUTINO,INGENIEROS QUIMICOS MZ. 12  LT . 31,NUEVA ROSITA,IZTAPALAPA,Particular,"INGENIEROS QUIMICOS MZ. 12  LT . 31, NUEVA ROSITA, IZTAPALAPA",19.3774391,-99.1038651,"19.3774391,-99.1038651"
217,Preescolar,JARDÍN DE NIÑOS BETTY,MATUTINO,TLACOTALPAN NO. 130,ROMA SUR,CUAUHTEMOC,Particular,"TLACOTALPAN NO. 130, ROMA SUR, CUAUHTEMOC",19.4026334,-99.1653567,"19.4026334,-99.1653567"
218,Preescolar,CARROLL LEWIS,MATUTINO,EMILIANO ZAPATA NO. 29,SANTA CATARINA AMPLIACION,TLAHUAC,Particular,"EMILIANO ZAPATA NO. 29, SANTA CATARINA AMPLIACION, TLAHUAC",19.3226212,-98.9617984,"19.3226212,-98.9617984"
219,Preescolar,JARDIN DE NIÑOS JEAN PIAGET,MATUTINO,MAR DE LOS VAPORES MZA. 201 LT. 11,SELENE AMPLIACION,TLAHUAC,Particular,"MAR DE LOS VAPORES MZA. 201 LT. 11, SELENE AMPLIACION, TLAHUAC",19.2847936,-98.99457,"19.2847936,-98.99457"
220,Preescolar,COLEGIO ATOCPAN,MATUTINO,ATZAYACATL NO. 99,SAN PEDRO ATOCPAN SECCION 3,MILPA ALTA,Particular,"ATZAYACATL NO. 99, SAN PEDRO ATOCPAN SECCION 3, MILPA ALTA",19.2044701,-99.0509423,"19.2044701,-99.0509423"
221,Preescolar,JARDIN DE NIÑOS DOLORES CORREA ZAPATA,MATUTINO,AV. AQUILES SERDAN NO. 140,SANTIAGO TULYEHUALCO,XOCHIMILCO,Particular,"AV. AQUILES SERDAN NO. 140, SANTIAGO TULYEHUALCO, XOCHIMILCO",19.2565387,-99.0162976,"19.2565387,-99.0162976"
222,Preescolar,EGLANTINE JEFF,MATUTINO,PALMA NO. 48,SAN ANDRES TOTOLTEPEC,TLALPAN,Particular,"PALMA NO. 48, SAN ANDRES TOTOLTEPEC, TLALPAN",19.250599,-99.1620362,"19.250599,-99.1620362"
223,Preescolar,INSTITUTO DONCELLA DE ORLEANS,MATUTINO,HUASTECA NO. 238,INDUSTRIAL,GUSTAVO A. MADERO,Particular,"HUASTECA NO. 238, INDUSTRIAL, GUSTAVO A. MADERO",19.4744316,-99.1244418,"19.4744316,-99.1244418"
224,Preescolar,CENDI INTI,MATUTINO,CALZ. DE TLALPAN No. 4924,LA JOYA,TLALPAN,Particular,"CALZ. DE TLALPAN No. 4924, LA JOYA, TLALPAN",19.2840159,-99.1642618,"19.2840159,-99.1642618"
225,Preescolar,CENTRO PEDAGOGICO INTERACTIVO CIMAT,MATUTINO,RETORNO 47 DE CECILIO ROBELO NO. 14,JARDIN BALBUENA,VENUSTIANO CARRANZA,Particular,"RETORNO 47 DE CECILIO ROBELO NO. 14, JARDIN BALBUENA, VENUSTIANO CARRANZA",19.4194833,-99.1031383,"19.4194833,-99.1031383"
226,Preescolar,INSTITUTO MESOAMERICA,MATUTINO,2 DE ABRIL NO.367,SANTA CRUZ ACALPIXCA,XOCHIMILCO,Particular,"2 DE ABRIL NO.367, SANTA CRUZ ACALPIXCA, XOCHIMILCO",19.2428215,-99.0691665,"19.2428215,-99.0691665"
227,Preescolar,JARDIN DE NIÑOS OCTAVIO PAZ,MATUTINO,RETORNO 31 DE GENARO GARCIA NO. 10,JARDIN BALBUENA,VENUSTIANO CARRANZA,Particular,"RETORNO 31 DE GENARO GARCIA NO. 10, JARDIN BALBUENA, VENUSTIANO CARRANZA",19.4232414,-99.102264,"19.4232414,-99.102264"
228,Preescolar,JARDIN DE NIÑOS MAESTRO MANUEL ACOSTA,MATUTINO,TENANCALCO NO. 13,MIGUEL HIDALGO,TLALPAN,Particular,"TENANCALCO NO. 13, MIGUEL HIDALGO, TLALPAN",19.2941967,-99.1829409,"19.2941967,-99.1829409"
229,Preescolar,MELODY,MATUTINO,SUR 26 No. 19,AGRICOLA ORIENTAL,IZTACALCO,Particular,"SUR 26 No. 19, AGRICOLA ORIENTAL, IZTACALCO",19.3859066,-99.0623561,"19.3859066,-99.0623561"
230,Preescolar,MONTESSORI DE ATLAMAYA,MATUTINO,TLAPACOYA NO. 45,ATLAMAYA,ALVARO OBREGON,Particular,"TLAPACOYA NO. 45, ATLAMAYA, ALVARO OBREGON",19.3490485,-99.2032273,"19.3490485,-99.2032273"
231,Preescolar,LICEO ROBERT OWEN,MATUTINO,CDA DE  PINO NO. 12,LA GUADALUPITA,XOCHIMILCO,Particular,"CDA DE  PINO NO. 12, LA GUADALUPITA, XOCHIMILCO",19.2751164,-99.1172386,"19.2751164,-99.1172386"
232,Preescolar,VINCENT VAN GOGH,MATUTINO,ZOTITLA NO. 60,ABDIAS GARCIA SOTO,CUAJIMALPA DE MORELOS,Particular,"ZOTITLA NO. 60, ABDIAS GARCIA SOTO, CUAJIMALPA DE MORELOS",19.3510651,-99.2931068,"19.3510651,-99.2931068"
233,Preescolar,JOSÉ MARIA MORELOS Y PAVON,MATUTINO,5 DE MAYO NO. 107 B,XALTOCAN,XOCHIMILCO,Particular,"5 DE MAYO NO. 107 B, XALTOCAN, XOCHIMILCO",19.2578105,-99.103359,"19.2578105,-99.103359"
234,Preescolar,BAMBI,MATUTINO,CARUSO No. 45,EX-HIPODROMO DE PERALVILLO,CUAUHTEMOC,Particular,"CARUSO No. 45, EX-HIPODROMO DE PERALVILLO, CUAUHTEMOC",19.4575297,-99.1330983,"19.4575297,-99.1330983"
235,Preescolar,KINDER AMERICAS DEL TEPEYAC,MATUTINO,MANTA NO. 606,LINDAVISTA,GUSTAVO A. MADERO,Particular,"MANTA NO. 606, LINDAVISTA, GUSTAVO A. MADERO",19.4885681,-99.1357355,"19.4885681,-99.1357355"
236,Preescolar,LICEO UNIVERSITARIO JOSÉ VASCONCELOS,MATUTINO,CARRETERA A SN JUAN TEPENAHUAC NO 25,SANTA ANA TLACOTENCO,MILPA ALTA,Particular,"CARRETERA A SN JUAN TEPENAHUAC NO 25, SANTA ANA TLACOTENCO, MILPA ALTA",19.1782031,-98.9994879,"19.1782031,-98.9994879"
237,Preescolar,COLEGIO MARBERTH,MATUTINO,"REVOLUCION SOCIAL NO. 49, MZ. 8, SUPERMANZANA 7",UNIDAD HABITACIONAL VICENTE GUERRERO,IZTAPALAPA,Particular,"REVOLUCION SOCIAL NO. 49, MZ. 8, SUPERMANZANA 7, UNIDAD HABITACIONAL VICENTE GUERRERO, IZTAPALAPA",19.3535737,-99.0613366,"19.3535737,-99.0613366"
238,Preescolar,MICHEL TOURNIER,MATUTINO,SAN ANTONIO S/N ESQ. MATEO SALDAÑA,SAN LORENZO TEZONCO,IZTAPALAPA,Particular,"SAN ANTONIO S/N ESQ. MATEO SALDAÑA, SAN LORENZO TEZONCO, IZTAPALAPA",,,
239,Preescolar,ICC JR,MATUTINO,TIERRA ARENOSA NO. 5,TIERRA NUEVA,AZCAPOTZALCO,Particular,"TIERRA ARENOSA NO. 5, TIERRA NUEVA, AZCAPOTZALCO",19.4975965,-99.1991426,"19.4975965,-99.1991426"
240,Preescolar,BARBARA COLYNS,MATUTINO,PROLONGACION DE GRANATE NO. 10,ESTRELLA,GUSTAVO A. MADERO,Particular,"PROLONGACION DE GRANATE NO. 10, ESTRELLA, GUSTAVO A. MADERO",19.4725913,-99.1183587,"19.4725913,-99.1183587"
241,Preescolar,ESTRELLA DE LA MAÑANA,MATUTINO,CATAMARCA NO. 125,SAN PEDRO ZACATENCO,GUSTAVO A. MADERO,Particular,"CATAMARCA NO. 125, SAN PEDRO ZACATENCO, GUSTAVO A. MADERO",19.5033868,-99.1249708,"19.5033868,-99.1249708"
242,Preescolar,KINDER MELYMAR,MATUTINO,BANDERA NO. 143,LA LAGUNA TICOMAN,GUSTAVO A. MADERO,Particular,"BANDERA NO. 143, LA LAGUNA TICOMAN, GUSTAVO A. MADERO",19.514829,-99.1320374,"19.514829,-99.1320374"
243,Preescolar,LITTLE MAGIC WORD,MATUTINO,TENOCHTITLAN NO. 66,SANTA ISABEL TOLA,GUSTAVO A. MADERO,Particular,"TENOCHTITLAN NO. 66, SANTA ISABEL TOLA, GUSTAVO A. MADERO",19.5000526,-99.1153477,"19.5000526,-99.1153477"
244,Preescolar,BONAMPAK,MATUTINO,RIO SAN JAVIER NO. 264,ACUEDUCTO DE GUADALUPE,GUSTAVO A. MADERO,Particular,"RIO SAN JAVIER NO. 264, ACUEDUCTO DE GUADALUPE, GUSTAVO A. MADERO",19.5264064,-99.1475798,"19.5264064,-99.1475798"
245,Preescolar,JARDIN DE NIÑOS YING YING,MATUTINO,BOULEVARD DEL TEMOLUCO NO. 326,ACUEDUCTO DE GUADALUPE,GUSTAVO A. MADERO,Particular,"BOULEVARD DEL TEMOLUCO NO. 326, ACUEDUCTO DE GUADALUPE, GUSTAVO A. MADERO",19.5268091,-99.1546376,"19.5268091,-99.1546376"
246,Preescolar,JARDÍN DE NIÑOS CARSOLIO,MATUTINO,AV. 504 NO. 18,UNIDAD SAN JUAN DE ARAGON,GUSTAVO A. MADERO,Particular,"AV. 504 NO. 18, UNIDAD SAN JUAN DE ARAGON, GUSTAVO A. MADERO",19.4517305,-99.0891206,"19.4517305,-99.0891206"
247,Preescolar,JARDÍN DE NIÑOS CARRUSEL,MATUTINO,ORIENTE 121 NO. 4606,GERTRUDIS SANCHEZ,GUSTAVO A. MADERO,Particular,"ORIENTE 121 NO. 4606, GERTRUDIS SANCHEZ, GUSTAVO A. MADERO",19.4673628,-99.0969635,"19.4673628,-99.0969635"
248,Preescolar,CENTRO PEDAGÓGICO CRI CRI,MATUTINO,NORTE 94 NO. 6554,SAN PEDRO EL CHICO,GUSTAVO A. MADERO,Particular,"NORTE 94 NO. 6554, SAN PEDRO EL CHICO, GUSTAVO A. MADERO",19.4698486,-99.0952582,"19.4698486,-99.0952582"
249,Preescolar,JARDIN DE NIÑOS PAPALOTE,MATUTINO,EMILIANO ZAPATA No. 129,LA PROVIDENCIA,AZCAPOTZALCO,Particular,"EMILIANO ZAPATA No. 129, LA PROVIDENCIA, AZCAPOTZALCO",19.4933209,-99.2131012,"19.4933209,-99.2131012"
250,Preescolar,DAISY KINDERGARDEN,MATUTINO,LAGO SUPERIOR NO. 87,LEGARIA,MIGUEL HIDALGO,Particular,"LAGO SUPERIOR NO. 87, LEGARIA, MIGUEL HIDALGO",19.4574394,-99.191971,"19.4574394,-99.191971"
251,Preescolar,WESTHILL INSTITUTE,MATUTINO,MONTE ATHOS NO. 330,LOMAS DE CHAPULTEPEC,MIGUEL HIDALGO,Particular,"MONTE ATHOS NO. 330, LOMAS DE CHAPULTEPEC, MIGUEL HIDALGO",19.4190149,-99.2142315,"19.4190149,-99.2142315"
252,Preescolar,COLEGIO WES,MATUTINO,JOSE MARIA CASTORENA NO. 318,CUAJIMALPA,CUAJIMALPA DE MORELOS,Particular,"JOSE MARIA CASTORENA NO. 318, CUAJIMALPA, CUAJIMALPA DE MORELOS",19.3603876,-99.2923088,"19.3603876,-99.2923088"
253,Preescolar,LA CASITA DEL BOSQUE,MATUTINO,JUAN DE ACUÑA NO. 323,LOMAS VIRREYES,MIGUEL HIDALGO,Particular,"JUAN DE ACUÑA NO. 323, LOMAS VIRREYES, MIGUEL HIDALGO",19.417442,-99.2087422,"19.417442,-99.2087422"
254,Preescolar,ESCUELA FUNDACION MIER Y PESADO,MATUTINO,GENERAL ANAYA NO. 371,DEL CARMEN,COYOACAN,Particular,"GENERAL ANAYA NO. 371, DEL CARMEN, COYOACAN",19.3515865,-99.1544666,"19.3515865,-99.1544666"
255,Preescolar,COLEGIO MANUEL EDUARDO DE GOROSTIZA,MATUTINO,CALZ. DE LAS BRUJAS NO. 327,LAS HADAS,TLALPAN,Particular,"CALZ. DE LAS BRUJAS NO. 327, LAS HADAS, TLALPAN",19.2978777,-99.1200741,"19.2978777,-99.1200741"
256,Preescolar,MUNDO INFANTIL DE ALFRED NOBEL,MATUTINO,DZEMUL NO. 192,PEDREGAL DE SAN NICOLAS,TLALPAN,Particular,"DZEMUL NO. 192, PEDREGAL DE SAN NICOLAS, TLALPAN",19.276265,-99.2385315,"19.276265,-99.2385315"
257,Preescolar,XUMI MONTESSORI,MATUTINO,ARTEAGA Y SALAZAR NO. 1614,CONTADERO,CUAJIMALPA DE MORELOS,Particular,"ARTEAGA Y SALAZAR NO. 1614, CONTADERO, CUAJIMALPA DE MORELOS",19.3504454,-99.282294,"19.3504454,-99.282294"
258,Preescolar,COLEGIO QUETZAL,MATUTINO,AV. SUR 20 NO. 315,AGRICOLA ORIENTAL,IZTACALCO,Particular,"AV. SUR 20 NO. 315, AGRICOLA ORIENTAL, IZTACALCO",19.3917497,-99.0731388,"19.3917497,-99.0731388"
259,Preescolar,TZICATPILLI,MATUTINO,MOCTEZUMA NO. 52,SAN PEDRO ATOCPAN SECCION 3,MILPA ALTA,Particular,"MOCTEZUMA NO. 52, SAN PEDRO ATOCPAN SECCION 3, MILPA ALTA",19.1942041,-99.0267076,"19.1942041,-99.0267076"
260,Preescolar,JARDIN DE NIÑOS TULYEHUALCO,MATUTINO,FRANCISCO VILLA NO. 20,QUIAHUATLA,TLAHUAC,Particular,"FRANCISCO VILLA NO. 20, QUIAHUATLA, TLAHUAC",19.2595258,-99.0082214,"19.2595258,-99.0082214"
261,Preescolar,MARÍA CHAVARRÍA VITAL,MATUTINO,MANUEL M. LOPEZ MZA.79 LOTE 15,BARRIO SANTA ANA ZAPOTITLAN,TLAHUAC,Particular,"MANUEL M. LOPEZ MZA.79 LOTE 15, BARRIO SANTA ANA ZAPOTITLAN, TLAHUAC",19.3025044,-99.0440041,"19.3025044,-99.0440041"
262,Preescolar,CARRUSEL MAGICO,MATUTINO,PINOS NO. 41,DEL BOSQUE,GUSTAVO A. MADERO,Particular,"PINOS NO. 41, DEL BOSQUE, GUSTAVO A. MADERO",19.4766211,-99.0694134,"19.4766211,-99.0694134"
263,Preescolar,INSTITUTO PEDAGÓGICO EMMA GODOY,MATUTINO,ESPEJO DE AGUA NO. 1,IZTACALCO,IZTACALCO,Particular,"ESPEJO DE AGUA NO. 1, IZTACALCO, IZTACALCO",19.3839156,-99.1039165,"19.3839156,-99.1039165"
264,Preescolar,SUNRISE HILLS CDI,MATUTINO,HUEHUETAN MZA. 140 NO.128,LOMAS DE PADIERNA,TLALPAN,Particular,"HUEHUETAN MZA. 140 NO.128, LOMAS DE PADIERNA, TLALPAN",19.2908144,-99.219276,"19.2908144,-99.219276"
265,Preescolar,HEROES,MATUTINO,AV. MIGUEL ANGEL DE QUEVEDO NO. 426,SANTA CATARINA,COYOACAN,Particular,"AV. MIGUEL ANGEL DE QUEVEDO NO. 426, SANTA CATARINA, COYOACAN",19.3457722,-99.1722524,"19.3457722,-99.1722524"
266,Preescolar,COLEGIO GARCÍA HOOTCH KINDERGARTEN,MATUTINO,GRANATE NO. 24,ESTRELLA,GUSTAVO A. MADERO,Particular,"GRANATE NO. 24, ESTRELLA, GUSTAVO A. MADERO",19.475353,-99.1172458,"19.475353,-99.1172458"
267,Preescolar,JARDIN DE NIÑOS TERESITA LOS ANGELES,MATUTINO,CALLE 309 No. 20,UNIDAD HABITACIONAL EL COYOL,GUSTAVO A. MADERO,Particular,"CALLE 309 No. 20, UNIDAD HABITACIONAL EL COYOL, GUSTAVO A. MADERO",19.4894428,-99.0907334,"19.4894428,-99.0907334"
268,Preescolar,LICEO ALDAMA,MATUTINO,LEON DE LOS ALDAMAS NO. 76,SAN FELIPE DE JESUS,GUSTAVO A. MADERO,Particular,"LEON DE LOS ALDAMAS NO. 76, SAN FELIPE DE JESUS, GUSTAVO A. MADERO",19.492632,-99.0802902,"19.492632,-99.0802902"
269,Preescolar,CITLALI,MATUTINO,TIXTLA ESQ. CALPULALPAN NO. 2460,SAN FELIPE DE JESUS,GUSTAVO A. MADERO,Particular,"TIXTLA ESQ. CALPULALPAN NO. 2460, SAN FELIPE DE JESUS, GUSTAVO A. MADERO",19.4942931,-99.0733912,"19.4942931,-99.0733912"
270,Preescolar,MIS PRIMERAS LETRAS ABC,MATUTINO,ATOTONILCO NO. 1503,SAN FELIPE DE JESUS,GUSTAVO A. MADERO,Particular,"ATOTONILCO NO. 1503, SAN FELIPE DE JESUS, GUSTAVO A. MADERO",19.4904972,-99.074905,"19.4904972,-99.074905"
271,Preescolar,JARDÍN DE NIÑOS COLIBRI,MATUTINO,PARRAL NO. 12,SAN FELIPE DE JESUS,GUSTAVO A. MADERO,Particular,"PARRAL NO. 12, SAN FELIPE DE JESUS, GUSTAVO A. MADERO",19.4912404,-99.0725232,"19.4912404,-99.0725232"
272,Preescolar,INSTITUTO PASCUAL BORGIA,MATUTINO,LAGO ARGENTINA NO. 17,ARGENTINA ANTIGUA,MIGUEL HIDALGO,Particular,"LAGO ARGENTINA NO. 17, ARGENTINA ANTIGUA, MIGUEL HIDALGO",19.4577514,-99.2004839,"19.4577514,-99.2004839"
273,Preescolar,GANDHI,MATUTINO,PUEBLA ORIENTE NO. 122,SANTA CRUZ BARRIO,MILPA ALTA,Particular,"PUEBLA ORIENTE NO. 122, SANTA CRUZ BARRIO, MILPA ALTA",19.1944656,-99.0191724,"19.1944656,-99.0191724"
274,Preescolar,TLAMACHTILOYAN,MATUTINO,CAPULIN NO. 227,LAS PERITAS,XOCHIMILCO,Particular,"CAPULIN NO. 227, LAS PERITAS, XOCHIMILCO",19.272113,-99.1239576,"19.272113,-99.1239576"
275,Preescolar,COLEGIO IZTACCIHUATL,MATUTINO,LAZARO CARDENAS NO. 51,SAN GREGORIO ATLAPULCO,XOCHIMILCO,Particular,"LAZARO CARDENAS NO. 51, SAN GREGORIO ATLAPULCO, XOCHIMILCO",19.2501756,-99.0583472,"19.2501756,-99.0583472"
276,Preescolar,CENTRO DE DESARROLLO INFANTIL MUNDO FELIZ,MATUTINO,NETZAHUALCOYOTL NO. 126,ARAGON,GUSTAVO A. MADERO,Particular,"NETZAHUALCOYOTL NO. 126, ARAGON, GUSTAVO A. MADERO",19.4784798,-99.1140981,"19.4784798,-99.1140981"
277,Preescolar,KINDER YACATIA,MATUTINO,BUENAVISTA NO. 79,LINDAVISTA,GUSTAVO A. MADERO,Particular,"BUENAVISTA NO. 79, LINDAVISTA, GUSTAVO A. MADERO",19.4901789,-99.1260288,"19.4901789,-99.1260288"
278,Preescolar,JARDIN DE NIÑOS SANTA CRUZ ALTILLO,MATUTINO,EMILIANO ZAPATA NO. 437,SANTA CRUZ ATOYAC,BENITO JUAREZ,Particular,"EMILIANO ZAPATA NO. 437, SANTA CRUZ ATOYAC, BENITO JUAREZ",19.3694088,-99.161788,"19.3694088,-99.161788"
279,Preescolar,ESCUELA TOMAS ALVA EDISON,MATUTINO,HERIBERTO FRIAS NO. 1401,DEL VALLE,BENITO JUAREZ,Particular,"HERIBERTO FRIAS NO. 1401, DEL VALLE, BENITO JUAREZ",19.3747448,-99.1640268,"19.3747448,-99.1640268"
280,Preescolar,INSTITUTO CANADIENSE DE MÉXICO,MATUTINO,BARTOLOACHE NO. 1914,ACACIAS,BENITO JUAREZ,Particular,"BARTOLOACHE NO. 1914, ACACIAS, BENITO JUAREZ",19.3673192,-99.1745321,"19.3673192,-99.1745321"
281,Preescolar,INDEPENDENCIA Y SOLIDARIDAD,MATUTINO,ITURBIDE PONIENTE NO. 127,SAN ANTONIO TECOMITL,MILPA ALTA,Particular,"ITURBIDE PONIENTE NO. 127, SAN ANTONIO TECOMITL, MILPA ALTA",19.2166497,-99.0002039,"19.2166497,-99.0002039"
282,Preescolar,JARDIN DE NIÑOS MI MUNDO,MATUTINO,JUAN SANCHEZ AZCONA NO. 1448,DEL VALLE,BENITO JUAREZ,Particular,"JUAN SANCHEZ AZCONA NO. 1448, DEL VALLE, BENITO JUAREZ",19.3758034,-99.1644244,"19.3758034,-99.1644244"
283,Preescolar,JARDÍN DE NIÑOS TREBOLITO FELIZ,MATUTINO,JUAN SARABIA NO. 249,NUEVA SANTA MARIA,AZCAPOTZALCO,Particular,"JUAN SARABIA NO. 249, NUEVA SANTA MARIA, AZCAPOTZALCO",19.4656364,-99.1676058,"19.4656364,-99.1676058"
284,Preescolar,JULES VERNE SCHOOL,MATUTINO,HERIBERTO FRIAS No 949,DEL VALLE,BENITO JUAREZ,Particular,"HERIBERTO FRIAS No 949, DEL VALLE, BENITO JUAREZ",19.3843948,-99.1618968,"19.3843948,-99.1618968"
285,Preescolar,MONTESSORI SIGLO XXI,MATUTINO,CORDOBANES NO. 43,SAN JOSE INSURGENTES,BENITO JUAREZ,Particular,"CORDOBANES NO. 43, SAN JOSE INSURGENTES, BENITO JUAREZ",19.3659863,-99.1868261,"19.3659863,-99.1868261"
286,Preescolar,COLEGIO REINO UNIDO,MATUTINO,XOCHIMILCO NO. 15,MERCED GOMEZ,ALVARO OBREGON,Particular,"XOCHIMILCO NO. 15, MERCED GOMEZ, ALVARO OBREGON",19.3658199,-99.2034049,"19.3658199,-99.2034049"
287,Preescolar,TULIP'S KINDERGARDEN,MATUTINO,EMPERADORES NO. 186 BIS,PORTALES,BENITO JUAREZ,Particular,"EMPERADORES NO. 186 BIS, PORTALES, BENITO JUAREZ",19.3672252,-99.1536027,"19.3672252,-99.1536027"
288,Preescolar,KINDERGYM,MATUTINO,GENARO GARCIA NOS. 164 Y 166,JARDIN BALBUENA,VENUSTIANO CARRANZA,Particular,"GENARO GARCIA NOS. 164 Y 166, JARDIN BALBUENA, VENUSTIANO CARRANZA",19.415046,-99.104168,"19.415046,-99.104168"
289,Preescolar,INSTITUTO DE INTEGRACIÓN EDUCATIVA,MATUTINO,ANAXAGORAS NO. 1420,SANTA CRUZ ATOYAC,BENITO JUAREZ,Particular,"ANAXAGORAS NO. 1420, SANTA CRUZ ATOYAC, BENITO JUAREZ",19.3728274,-99.161248,"19.3728274,-99.161248"
290,Preescolar,COLEGIO WILLIAM JAMES,MATUTINO,AV. TAMAULIPAS NO.1190,CORPUS CHRISTI,ALVARO OBREGON,Particular,"AV. TAMAULIPAS NO.1190, CORPUS CHRISTI, ALVARO OBREGON",19.3640107,-99.2444747,"19.3640107,-99.2444747"
291,Preescolar,MI PEQUEÑO CICLON,MATUTINO,AV. MEXICO NO. 68,TIZAPAN,ALVARO OBREGON,Particular,"AV. MEXICO NO. 68, TIZAPAN, ALVARO OBREGON",19.3395137,-99.2018133,"19.3395137,-99.2018133"
292,Preescolar,JARDIN DE NIÑOS ERASMO CASTELLANOS QUINTO,MATUTINO,MIGUEL ANGEL NO. 25,MODERNA,BENITO JUAREZ,Particular,"MIGUEL ANGEL NO. 25, MODERNA, BENITO JUAREZ",19.3978497,-99.1351735,"19.3978497,-99.1351735"
293,Preescolar,JARDÍN DE NIÑOS COLEGIO MIGUEL ANGEL ASTURIAS,MATUTINO,UXMAL NO. 367,NARVARTE,BENITO JUAREZ,Particular,"UXMAL NO. 367, NARVARTE, BENITO JUAREZ",19.3883367,-99.1554634,"19.3883367,-99.1554634"
294,Preescolar,CENTRO PEDAGOGICO FEDERICO FROEBEL,MATUTINO,CALLE DOS NO. 224,AGRICOLA PANTITLAN,IZTACALCO,Particular,"CALLE DOS NO. 224, AGRICOLA PANTITLAN, IZTACALCO",19.4141565,-99.0666071,"19.4141565,-99.0666071"
295,Preescolar,"CENTRO EDUCACIONAL NEMOHUA, A.C.",MATUTINO,AMORES NO. 318,DEL VALLE,BENITO JUAREZ,Particular,"AMORES NO. 318, DEL VALLE, BENITO JUAREZ",19.3937398,-99.1638496,"19.3937398,-99.1638496"
296,Preescolar,CENTRO EDUCATIVO MODERNO,MATUTINO,XOLA NO. 36,ALAMOS,BENITO JUAREZ,Particular,"XOLA NO. 36, ALAMOS, BENITO JUAREZ",19.3951795,-99.1446454,"19.3951795,-99.1446454"
297,Preescolar,BRITISH COLUMBIA,MATUTINO,JOSE J. JASSO NO. 48,MOCTEZUMA 1A SECCION,VENUSTIANO CARRANZA,Particular,"JOSE J. JASSO NO. 48, MOCTEZUMA 1A SECCION, VENUSTIANO CARRANZA",19.428847,-99.1076333,"19.428847,-99.1076333"
298,Preescolar,PREESCOLAR CRUZ GÓMEZ TAGLE,MATUTINO,BRAVO NO. 30,MORELOS,VENUSTIANO CARRANZA,Particular,"BRAVO NO. 30, MORELOS, VENUSTIANO CARRANZA",19.4356699,-99.1223988,"19.4356699,-99.1223988"
299,Preescolar,CENTRO DE EDUCACIÓN PREESCOLAR EL ARLEQUÍN,MATUTINO,NORTE 33 NO.25,MOCTEZUMA 2A SECCION,VENUSTIANO CARRANZA,Particular,"NORTE 33 NO.25, MOCTEZUMA 2A SECCION, VENUSTIANO CARRANZA",19.4365644,-99.0959264,"19.4365644,-99.0959264"
300,Preescolar,GENGIS KAN,MATUTINO,AV. ADOLFO LOPEZ MATEOS MZA. 36 LT. 17,PRESIDENTES,ALVARO OBREGON,Particular,"AV. ADOLFO LOPEZ MATEOS MZA. 36 LT. 17, PRESIDENTES, ALVARO OBREGON",19.3785234,-99.2218285,"19.3785234,-99.2218285"
301,Preescolar,INSTITUTO JUAN BOSCO,MATUTINO,FRAY SEBASTIAN DE APARICIO NO. 31,ATZACOALCO,GUSTAVO A. MADERO,Particular,"FRAY SEBASTIAN DE APARICIO NO. 31, ATZACOALCO, GUSTAVO A. MADERO",19.4950037,-99.0969527,"19.4950037,-99.0969527"
302,Preescolar,CENTRO DE DESARROLLO INFANTIL SUMMER HILLS,MATUTINO,YAUTEPEC NO. 74,CONDESA,CUAUHTEMOC,Particular,"YAUTEPEC NO. 74, CONDESA, CUAUHTEMOC",19.4130097,-99.177033,"19.4130097,-99.177033"
303,Preescolar,CENTRO ESCOLAR LA CASITA DE LOS PEQUES,MATUTINO,MANUEL M. PONCE NO. 313,GUADALUPE INN,ALVARO OBREGON,Particular,"MANUEL M. PONCE NO. 313, GUADALUPE INN, ALVARO OBREGON",19.354641,-99.1886451,"19.354641,-99.1886451"
304,Preescolar,JARDIN DE NIÑOS FEDERICO FROEBEL,MATUTINO,CERRADA DOS RIOS NO. 58,LAS MAROMAS,CUAJIMALPA DE MORELOS,Particular,"CERRADA DOS RIOS NO. 58, LAS MAROMAS, CUAJIMALPA DE MORELOS",19.3190479,-99.3347767,"19.3190479,-99.3347767"
305,Preescolar,KOKONE,MATUTINO,CDA. DE INSURGENTES MZ 22B LT. 5-C,DESARROLLO URBANO QUETZALCOATL,IZTAPALAPA,Particular,"CDA. DE INSURGENTES MZ 22B LT. 5-C, DESARROLLO URBANO QUETZALCOATL, IZTAPALAPA",19.3245518,-99.0419068,"19.3245518,-99.0419068"
306,Preescolar,COLEGIO INGLES MICHAEL FARADAY,MATUTINO,AV. JOSE LORETO FABELA NO. 145,CASAS ALEMAN AMPLIACION,GUSTAVO A. MADERO,Particular,"AV. JOSE LORETO FABELA NO. 145, CASAS ALEMAN AMPLIACION, GUSTAVO A. MADERO",19.4789733,-99.0780598,"19.4789733,-99.0780598"
307,Preescolar,CENTRO DE ATENCION PREESCOLAR TONATZIN,MATUTINO,DZITAS NO. 430,PEDREGAL DE SAN NICOLAS,TLALPAN,Particular,"DZITAS NO. 430, PEDREGAL DE SAN NICOLAS, TLALPAN",19.2919479,-99.2392628,"19.2919479,-99.2392628"
308,Preescolar,JARDÍN DE NIÑOS EVE,MATUTINO,TIERRA GRIS NO. 15,TIERRA NUEVA,AZCAPOTZALCO,Particular,"TIERRA GRIS NO. 15, TIERRA NUEVA, AZCAPOTZALCO",19.4981356,-99.1992865,"19.4981356,-99.1992865"
309,Preescolar,JARDIN DE NIÑOS MI PRIMER AVENTURA,MATUTINO,GALEANA MZA. 90 LT. 645 B,MIGUEL HIDALGO AMPLIACION,TLALPAN,Particular,"GALEANA MZA. 90 LT. 645 B, MIGUEL HIDALGO AMPLIACION, TLALPAN",19.283766,-99.1972977,"19.283766,-99.1972977"
310,Preescolar,"CENTRO EDUCATIVO PREESCOLAR MIMÍ, A.C.",MATUTINO,JUAN SARABIA NO. 199,NUEVA SANTA MARIA,AZCAPOTZALCO,Particular,"JUAN SARABIA NO. 199, NUEVA SANTA MARIA, AZCAPOTZALCO",19.4636349,-99.1679035,"19.4636349,-99.1679035"
311,Preescolar,JARDIN DE NIÑOS KINDER ARCOIRIS,MATUTINO,NETZAHUALCOYOTL NO. 38,ARAGON,GUSTAVO A. MADERO,Particular,"NETZAHUALCOYOTL NO. 38, ARAGON, GUSTAVO A. MADERO",19.4839204,-99.1114598,"19.4839204,-99.1114598"
312,Preescolar,INSTITUTO GARCÍA,MATUTINO,CALLE 11 MZ. 52 LT. 18,JOSE LOPEZ PORTILLO,IZTAPALAPA,Particular,"CALLE 11 MZ. 52 LT. 18, JOSE LOPEZ PORTILLO, IZTAPALAPA",19.3056965,-99.0809475,"19.3056965,-99.0809475"
313,Preescolar,CENTRO ESCOLAR NUEVA GENERACION,MATUTINO,SANTO TOMAS NO. 215,SANTA URSULA COAPA,COYOACAN,Particular,"SANTO TOMAS NO. 215, SANTA URSULA COAPA, COYOACAN",19.3100297,-99.1539934,"19.3100297,-99.1539934"
314,Preescolar,JARDÍN DE NIÑOS BRITANIA,MATUTINO,AMUSGOS #91,TEZOZOMOC,AZCAPOTZALCO,Particular,"AMUSGOS #91, TEZOZOMOC, AZCAPOTZALCO",19.4907061,-99.1990198,"19.4907061,-99.1990198"
315,Preescolar,COLEGIO PETERSON,MATUTINO,HUIZACHITO NO. 80,LOMAS DE VISTA HERMOSA,CUAJIMALPA DE MORELOS,Particular,"HUIZACHITO NO. 80, LOMAS DE VISTA HERMOSA, CUAJIMALPA DE MORELOS",19.3714553,-99.2799282,"19.3714553,-99.2799282"
316,Preescolar,JARDIN DE NIÑOS JOSÉ MARIA LICEAGA,MATUTINO,JUAN DE DIOS ARIAS N° 51,VISTA ALEGRE,CUAUHTEMOC,Particular,"JUAN DE DIOS ARIAS N° 51, VISTA ALEGRE, CUAUHTEMOC",19.4108497,-99.1348276,"19.4108497,-99.1348276"
317,Preescolar,ACATONALLI,MATUTINO,GALEANA NO. 29,XALTOCAN,XOCHIMILCO,Particular,"GALEANA NO. 29, XALTOCAN, XOCHIMILCO",19.2554038,-99.1037807,"19.2554038,-99.1037807"
318,Preescolar,JARDIN DE NIÑOS OCTAVIO PAZ,MATUTINO,MAESTROS ESQ.PREPARATORIAS  MZ. 84 LT.8,ZONA ESCOLAR,GUSTAVO A. MADERO,Particular,"MAESTROS ESQ.PREPARATORIAS  MZ. 84 LT.8, ZONA ESCOLAR, GUSTAVO A. MADERO",19.5416765,-99.1435433,"19.5416765,-99.1435433"
319,Preescolar,KINDER KIDS HOUSE,MATUTINO,AV. DEL ROSAL NO. 193,MOLINO DE ROSAS,ALVARO OBREGON,Particular,"AV. DEL ROSAL NO. 193, MOLINO DE ROSAS, ALVARO OBREGON",19.3731156,-99.2028436,"19.3731156,-99.2028436"
320,Preescolar,JARDIN DE NIÑOS LITITOS,MATUTINO,FILIPINAS NO. 618,PORTALES,BENITO JUAREZ,Particular,"FILIPINAS NO. 618, PORTALES, BENITO JUAREZ",19.3656518,-99.148361,"19.3656518,-99.148361"
321,Preescolar,TLANECI SCHOOL,MATUTINO,PICHUCALCO NO. 456,LOMAS DE PADIERNA,TLALPAN,Particular,"PICHUCALCO NO. 456, LOMAS DE PADIERNA, TLALPAN",19.2782922,-99.2163291,"19.2782922,-99.2163291"
322,Preescolar,CENTRO PEDAGOGICO INTEGRAL,MATUTINO,CUAUHTEMOC NO. 142,XALTOCAN,XOCHIMILCO,Particular,"CUAUHTEMOC NO. 142, XALTOCAN, XOCHIMILCO",19.2582553,-99.1021876,"19.2582553,-99.1021876"
323,Preescolar,"INGRID COLLEGE SCHOOL, SOCIEDAD CIVIL",MATUTINO,LESBOS NO. 30,LOMAS ESTRELLA,IZTAPALAPA,Particular,"LESBOS NO. 30, LOMAS ESTRELLA, IZTAPALAPA",19.3263069,-99.094852,"19.3263069,-99.094852"
324,Preescolar,MINI ABC KIDS,MATUTINO,CRATER NO. 118,JARDINES DEL PEDREGAL,ALVARO OBREGON,Particular,"CRATER NO. 118, JARDINES DEL PEDREGAL, ALVARO OBREGON",19.3262838,-99.2034783,"19.3262838,-99.2034783"
325,Preescolar,COLEGIO GREENLAND,MATUTINO,GABRIEL MANCERA NO. 617,DEL VALLE,BENITO JUAREZ,Particular,"GABRIEL MANCERA NO. 617, DEL VALLE, BENITO JUAREZ",19.3892263,-99.1636753,"19.3892263,-99.1636753"
326,Preescolar,INSTITUTO DE TALENTOS GOOD KIDS,MATUTINO,AMORES NO. 1113,DEL VALLE,BENITO JUAREZ,Particular,"AMORES NO. 1113, DEL VALLE, BENITO JUAREZ",19.3801499,-99.1675625,"19.3801499,-99.1675625"
327,Preescolar,CENTRO ESCOLAR INFANTIL BILINGÜE BAMBI,MATUTINO,CARBONO NO. 8,UNIDAD INFONAVIT EL ROSARIO,AZCAPOTZALCO,Particular,"CARBONO NO. 8, UNIDAD INFONAVIT EL ROSARIO, AZCAPOTZALCO",19.5129984,-99.2011959,"19.5129984,-99.2011959"
328,Preescolar,TOTS,MATUTINO,NICOLAS SAN JUAN NO. 1429,DEL VALLE,BENITO JUAREZ,Particular,"NICOLAS SAN JUAN NO. 1429, DEL VALLE, BENITO JUAREZ",19.3744613,-99.165708,"19.3744613,-99.165708"
329,Preescolar,JARDÍN DE NIÑOS ALMENDRITA,MATUTINO,PALMAS NO. 160,EL TORO,LA MAGDALENA CONTRERAS,Particular,"PALMAS NO. 160, EL TORO, LA MAGDALENA CONTRERAS",19.310789,-99.2486215,"19.310789,-99.2486215"
330,Preescolar,TONANCI,MATUTINO,MIGUEL TORRUCO S/N. MZA. 182 LT. 14,JORGE NEGRETE,GUSTAVO A. MADERO,Particular,"MIGUEL TORRUCO S/N. MZA. 182 LT. 14, JORGE NEGRETE, GUSTAVO A. MADERO",19.5283746,-99.144381,"19.5283746,-99.144381"
331,Preescolar,INSTITUTO PEDAGOGICO SIMON BOLIVAR,MATUTINO,BOLIVAR NO. 1320 Y 1322,SAN SIMON TICUMAC,BENITO JUAREZ,Particular,"BOLIVAR NO. 1320 Y 1322, SAN SIMON TICUMAC, BENITO JUAREZ",19.3744299,-99.1474925,"19.3744299,-99.1474925"
332,Preescolar,CENTRO CULTURAL BRISTOL,MATUTINO,"AV. LA TURBA MZA.374, LT.7",DEL MAR,TLAHUAC,Particular,"AV. LA TURBA MZA.374, LT.7, DEL MAR, TLAHUAC",19.2919977,-99.0587149,"19.2919977,-99.0587149"
333,Preescolar,SENDA,MATUTINO,AV. TOLUCA NO. 541-A,OLIVAR DE LOS PADRES,ALVARO OBREGON,Particular,"AV. TOLUCA NO. 541-A, OLIVAR DE LOS PADRES, ALVARO OBREGON",19.3387071,-99.219622,"19.3387071,-99.219622"
334,Preescolar,COLEGIO SANTO DOMINGO,MATUTINO,OCOXAL NO. 13,PEDREGAL DE SANTO DOMINGO,COYOACAN,Particular,"OCOXAL NO. 13, PEDREGAL DE SANTO DOMINGO, COYOACAN",19.3308574,-99.1720631,"19.3308574,-99.1720631"
335,Preescolar,COLEGIO MARTINAK,MATUTINO,JOSE MARIA VERTIZ NO. 936,NARVARTE,BENITO JUAREZ,Particular,"JOSE MARIA VERTIZ NO. 936, NARVARTE, BENITO JUAREZ",19.3874612,-99.151753,"19.3874612,-99.151753"
336,Preescolar,JARDIN DE NIÑOS PIMPINELA,MATUTINO,CORONA DEL ROSAL NO. 23,ADOLFO LOPEZ MATEOS,VENUSTIANO CARRANZA,Particular,"CORONA DEL ROSAL NO. 23, ADOLFO LOPEZ MATEOS, VENUSTIANO CARRANZA",19.4236784,-99.0700891,"19.4236784,-99.0700891"
337,Preescolar,CENTRO INFANTIL MARIA TERESA,MATUTINO,GUERRERO NO. 37,CUAJIMALPA,CUAJIMALPA DE MORELOS,Particular,"GUERRERO NO. 37, CUAJIMALPA, CUAJIMALPA DE MORELOS",19.3533632,-99.2978991,"19.3533632,-99.2978991"
338,Preescolar,COLEGIO BOSQUES,MATUTINO,AV. VERACRUZ NO. 112,CUAJIMALPA,CUAJIMALPA DE MORELOS,Particular,"AV. VERACRUZ NO. 112, CUAJIMALPA, CUAJIMALPA DE MORELOS",19.353334,-99.3007349,"19.353334,-99.3007349"
339,Preescolar,COLEGIO FRANCO INGLES,MATUTINO,CAMINO DEL OLIVO NO. 686,LOMAS DE VISTA HERMOSA,CUAJIMALPA DE MORELOS,Particular,"CAMINO DEL OLIVO NO. 686, LOMAS DE VISTA HERMOSA, CUAJIMALPA DE MORELOS",19.3824231,-99.2783239,"19.3824231,-99.2783239"
340,Preescolar,COLEGIO OLIVERIO CROMWELL,MATUTINO,TZINAL NO. 123 MZA. 141 LT. 7,HEROES DE PADIERNA,TLALPAN,Particular,"TZINAL NO. 123 MZA. 141 LT. 7, HEROES DE PADIERNA, TLALPAN",19.2794535,-99.2169268,"19.2794535,-99.2169268"
341,Preescolar,INSTITUTO SCIFI,MATUTINO,AV. COYOACAN (EJE 3 PONIENTE) NO. 613,DEL VALLE,BENITO JUAREZ,Particular,"AV. COYOACAN (EJE 3 PONIENTE) NO. 613, DEL VALLE, BENITO JUAREZ",19.3891403,-99.1669443,"19.3891403,-99.1669443"
342,Preescolar,ELODIA RAMOS CHAVEZ,MATUTINO,ORIENTE 253 NO. 39,AGRICOLA ORIENTAL,IZTACALCO,Particular,"ORIENTE 253 NO. 39, AGRICOLA ORIENTAL, IZTACALCO",19.3997777,-99.0650998,"19.3997777,-99.0650998"
343,Preescolar,KINDERGYM,MATUTINO,MATANZAS NO. 760,LINDAVISTA,GUSTAVO A. MADERO,Particular,"MATANZAS NO. 760, LINDAVISTA, GUSTAVO A. MADERO",19.492911,-99.1308934,"19.492911,-99.1308934"
344,Preescolar,KINDERGYM PEDREGAL,MATUTINO,CRATER NO. 540,JARDINES DEL PEDREGAL,ALVARO OBREGON,Particular,"CRATER NO. 540, JARDINES DEL PEDREGAL, ALVARO OBREGON",19.3193446,-99.2083883,"19.3193446,-99.2083883"
345,Preescolar,INSTITUTO VERTIN,MATUTINO,MEDANOS NO. 49,LAS AGUILAS,ALVARO OBREGON,Particular,"MEDANOS NO. 49, LAS AGUILAS, ALVARO OBREGON",19.3564257,-99.2025176,"19.3564257,-99.2025176"
346,Preescolar,LORD BERTRAND RUSSELL,MATUTINO,CANDELARIA NO. 36,EL ROSEDAL,COYOACAN,Particular,"CANDELARIA NO. 36, EL ROSEDAL, COYOACAN",19.3365491,-99.1476692,"19.3365491,-99.1476692"
347,Preescolar,COLEGIO FRANCO ESPAÑOL DE TLALPAN,MATUTINO,CALZADA MEXICO XOCHIMILCO NO. 122 BIS,SAN LORENZO HUIPULCO,TLALPAN,Particular,"CALZADA MEXICO XOCHIMILCO NO. 122 BIS, SAN LORENZO HUIPULCO, TLALPAN",19.2923156,-99.1509738,"19.2923156,-99.1509738"
348,Preescolar,INSTITUTO ALEXANDER DUL,MATUTINO,CENTENARIO NO. 57 BIS,MERCED GOMEZ,ALVARO OBREGON,Particular,"CENTENARIO NO. 57 BIS, MERCED GOMEZ, ALVARO OBREGON",19.3658925,-99.1951445,"19.3658925,-99.1951445"
349,Preescolar,TZIN TZIN,MATUTINO,MIGUEL HIDALGO S/N MZ 63 LT 2,SANTA MARIA AZTAHUACAN,IZTAPALAPA,Particular,"MIGUEL HIDALGO S/N MZ 63 LT 2, SANTA MARIA AZTAHUACAN, IZTAPALAPA",19.3543883,-99.017909,"19.3543883,-99.017909"
350,Preescolar,LICEO ALESSANDRI,MATUTINO,RIO NILO MZ. 23 LT. 22,VALLE DE SAN LORENZO,IZTAPALAPA,Particular,"RIO NILO MZ. 23 LT. 22, VALLE DE SAN LORENZO, IZTAPALAPA",19.300607,-99.0785915,"19.300607,-99.0785915"
351,Preescolar,COLEGIO PEDAGOGICO ARCE TENOCHTITLAN,MATUTINO,NORTE 80-A NO.4506,NUEVA TENOCHTITLAN,GUSTAVO A. MADERO,Particular,"NORTE 80-A NO.4506, NUEVA TENOCHTITLAN, GUSTAVO A. MADERO",19.4563121,-99.1063082,"19.4563121,-99.1063082"
352,Preescolar,HUITZILOPOCHTLI,MATUTINO,HACIENDA DE SAN NICOLAS TOLENTINO MZ. 25 LT. 25,PRESIDENTES DE MEXICO,IZTAPALAPA,Particular,"HACIENDA DE SAN NICOLAS TOLENTINO MZ. 25 LT. 25, PRESIDENTES DE MEXICO, IZTAPALAPA",19.3333795,-99.0628,"19.3333795,-99.0628"
353,Preescolar,INSTITUTO BASSOLS,MATUTINO,JOSEFA ORTIZ DE DOMINGUEZ NO. 1633,SANTA MARIA AZTAHUACAN,IZTAPALAPA,Particular,"JOSEFA ORTIZ DE DOMINGUEZ NO. 1633, SANTA MARIA AZTAHUACAN, IZTAPALAPA",19.345923,-99.029103,"19.345923,-99.029103"
354,Preescolar,CENTRO EDUCATIVO DIDASCALOS,MATUTINO,BILBAO NO. 853,SAN NICOLAS TOLENTINO,IZTAPALAPA,Particular,"BILBAO NO. 853, SAN NICOLAS TOLENTINO, IZTAPALAPA",19.3277566,-99.0728518,"19.3277566,-99.0728518"
355,Preescolar,CENTRO PSICOPEDAGOGICO RENACIMIENTO,MATUTINO,CEREZOS NO. 11,SANTA CRUZ XOCHITEPEC,XOCHIMILCO,Particular,"CEREZOS NO. 11, SANTA CRUZ XOCHITEPEC, XOCHIMILCO",19.2612494,-99.1281806,"19.2612494,-99.1281806"
356,Preescolar,ESCUELA INFANTIL MI ALEGRIA,MATUTINO,PASO DEL MOLINO NO.74,CAÑADA,ALVARO OBREGON,Particular,"PASO DEL MOLINO NO.74, CAÑADA, ALVARO OBREGON",19.3842533,-99.2286962,"19.3842533,-99.2286962"
357,Preescolar,COLEGIO KAROL WOJTYLA,MATUTINO,29 DE OCTUBRE MZA. 248-A LT. 55,LOMAS DE LA HERA,ALVARO OBREGON,Particular,"29 DE OCTUBRE MZA. 248-A LT. 55, LOMAS DE LA HERA, ALVARO OBREGON",19.3272669,-99.2594046,"19.3272669,-99.2594046"
358,Preescolar,TRAMONTANA,MATUTINO,ARTEAGA Y SALAZAR NO. 859,CONTADERO,CUAJIMALPA DE MORELOS,Particular,"ARTEAGA Y SALAZAR NO. 859, CONTADERO, CUAJIMALPA DE MORELOS",19.3477318,-99.290236,"19.3477318,-99.290236"
359,Preescolar,JARDÍN DE NIÑOS ALFRED BINNET,MATUTINO,AV. PALMAS NO. 167 Y 169,EL ROSAL ALTO,LA MAGDALENA CONTRERAS,Particular,"AV. PALMAS NO. 167 Y 169, EL ROSAL ALTO, LA MAGDALENA CONTRERAS",19.3103754,-99.248836,"19.3103754,-99.248836"
360,Preescolar,COLEGIO WORK AND PLAY,MATUTINO,AGUSTIN VICENTE EGUIA NO. 58-B,SAN MIGUEL CHAPULTEPEC,MIGUEL HIDALGO,Particular,"AGUSTIN VICENTE EGUIA NO. 58-B, SAN MIGUEL CHAPULTEPEC, MIGUEL HIDALGO",19.4077707,-99.188248,"19.4077707,-99.188248"
361,Preescolar,JARDIN DE NIÑOS MERINO,MATUTINO,TRIPOLI NO. 112,PORTALES,BENITO JUAREZ,Particular,"TRIPOLI NO. 112, PORTALES, BENITO JUAREZ",19.3728189,-99.1532042,"19.3728189,-99.1532042"
362,Preescolar,COLEGIO JEAN PIAGET,MATUTINO,AV. XOCHIMILCO NO. 78,SANTA CRUZ XOCHITEPEC,XOCHIMILCO,Particular,"AV. XOCHIMILCO NO. 78, SANTA CRUZ XOCHITEPEC, XOCHIMILCO",19.2561988,-99.1305704,"19.2561988,-99.1305704"
363,Preescolar,LOS OSITOS,MATUTINO,CDA. DE ORQUIDEA MZ. 16 LT. 87,LOMAS DE SANTA CRUZ,IZTAPALAPA,Particular,"CDA. DE ORQUIDEA MZ. 16 LT. 87, LOMAS DE SANTA CRUZ, IZTAPALAPA",19.3314903,-99.0356886,"19.3314903,-99.0356886"
364,Preescolar,COLEGIO ALJIBES PREESCOLAR,MATUTINO,MAR DE LAS TEMPESTADES  NO. 75,LOS OLIVOS,COYOACAN,Particular,"MAR DE LAS TEMPESTADES  NO. 75, LOS OLIVOS, COYOACAN",19.3133132,-99.1324434,"19.3133132,-99.1324434"
365,Preescolar,MARYA CURIE,MATUTINO,TEXCOCO NO. 22,IZTACALCO,IZTACALCO,Particular,"TEXCOCO NO. 22, IZTACALCO, IZTACALCO",19.4178252,-99.0610194,"19.4178252,-99.0610194"
366,Preescolar,KINDER LOS CEDROS,MATUTINO,PUERTO CADIZ NO. 91,HEROES DE CHAPULTEPEC,GUSTAVO A. MADERO,Particular,"PUERTO CADIZ NO. 91, HEROES DE CHAPULTEPEC, GUSTAVO A. MADERO",19.4748175,-99.0906546,"19.4748175,-99.0906546"
367,Preescolar,COLEGIO INGLES HELEN KELLER,MATUTINO,ALICIA NO. 74,GUADALUPE TEPEYAC,GUSTAVO A. MADERO,Particular,"ALICIA NO. 74, GUADALUPE TEPEYAC, GUSTAVO A. MADERO",19.4671874,-99.1234177,"19.4671874,-99.1234177"
368,Preescolar,COLEGIO PEDAGOGIA FREIREANA,MATUTINO,HERMINIO  CHAVARRIA NO. 108,SANTA MARIA AZTAHUACAN,IZTAPALAPA,Particular,"HERMINIO  CHAVARRIA NO. 108, SANTA MARIA AZTAHUACAN, IZTAPALAPA",19.3550563,-99.0265459,"19.3550563,-99.0265459"
369,Preescolar,ADOLPHE FERRIERE,VESPERTINO,JAZMIN MZ. 131 LT. 2,TENORIOS,IZTAPALAPA,Particular,"JAZMIN MZ. 131 LT. 2, TENORIOS, IZTAPALAPA",19.291601,-99.1169985,"19.291601,-99.1169985"
370,Preescolar,CENTRO ESCOLAR MARTINIQUE NENES GYM,MATUTINO,FERNANDO IGLESIAS CALDERON NO. 105,JARDIN BALBUENA,VENUSTIANO CARRANZA,Particular,"FERNANDO IGLESIAS CALDERON NO. 105, JARDIN BALBUENA, VENUSTIANO CARRANZA",19.4144224,-99.1050016,"19.4144224,-99.1050016"
371,Preescolar,MIS PRIMEROS PASOS AL EXITO,MATUTINO,ESTAMPADO NO. 234,20 DE NOVIEMBRE,VENUSTIANO CARRANZA,Particular,"ESTAMPADO NO. 234, 20 DE NOVIEMBRE, VENUSTIANO CARRANZA",19.4481413,-99.1056067,"19.4481413,-99.1056067"
372,Preescolar,FEDERICO FROEBEL,MATUTINO,25 DE SEPTIEMBRE DE 1873 MZ. 171 LT. 1976-A,LEYES DE REFORMA,IZTAPALAPA,Particular,"25 DE SEPTIEMBRE DE 1873 MZ. 171 LT. 1976-A, LEYES DE REFORMA, IZTAPALAPA",19.379,-99.0613862,"19.379,-99.0613862"
373,Preescolar,WONDERLAND,MATUTINO,RADAMES GAXIOLA NO. 505,ESCUADRON 201,IZTAPALAPA,Particular,"RADAMES GAXIOLA NO. 505, ESCUADRON 201, IZTAPALAPA",19.3634074,-99.1136365,"19.3634074,-99.1136365"
374,Preescolar,CENTRO EDUCATIVO SALVADOR ALLENDE,MATUTINO,SIMON BOLIVAR MZ. 227 LT. 15,IXTLAHUACAN,IZTAPALAPA,Particular,"SIMON BOLIVAR MZ. 227 LT. 15, IXTLAHUACAN, IZTAPALAPA",19.3385303,-98.997699,"19.3385303,-98.997699"
375,Preescolar,CENTRO DE ATENCION PREESCOLAR PESTALOZZI,MATUTINO,ANDADOR 1 LA ROQUETA MZ. 21 LT. 15,UNIDAD HABITACIONAL ERMITA ZARAGOZA,IZTAPALAPA,Particular,"ANDADOR 1 LA ROQUETA MZ. 21 LT. 15, UNIDAD HABITACIONAL ERMITA ZARAGOZA, IZTAPALAPA",19.3618427,-98.9965701,"19.3618427,-98.9965701"
376,Preescolar,PABLO NERUDA,MATUTINO,GUAYACAN MZ. 16 LT. 16,XALPA,IZTAPALAPA,Particular,"GUAYACAN MZ. 16 LT. 16, XALPA, IZTAPALAPA",19.3347628,-99.014274,"19.3347628,-99.014274"
377,Preescolar,INSTITUTO DE ENSEÑANZA PREESCOLAR TOHUI,MATUTINO,JOSE MANUEL FLORES NO. 15,UNIDAD HABITACIONAL VICENTE GUERRERO,IZTAPALAPA,Particular,"JOSE MANUEL FLORES NO. 15, UNIDAD HABITACIONAL VICENTE GUERRERO, IZTAPALAPA",19.3532012,-99.0549419,"19.3532012,-99.0549419"
378,Preescolar,EL MUNDO DEL SABER,MATUTINO,PRIVADA DE TRABAJADORAS SOCIALES NO. 25,SAN JOSE ACULCO,IZTAPALAPA,Particular,"PRIVADA DE TRABAJADORAS SOCIALES NO. 25, SAN JOSE ACULCO, IZTAPALAPA",19.3739207,-99.1157924,"19.3739207,-99.1157924"
379,Preescolar,CHARLY BROWN,MATUTINO,RÍO GRANDE MZ. 52 LT. 4,FRANCISCO VILLA,IZTAPALAPA,Particular,"RÍO GRANDE MZ. 52 LT. 4, FRANCISCO VILLA, IZTAPALAPA",19.3810922,-99.1122819,"19.3810922,-99.1122819"
380,Preescolar,INSTITUTO HISPANOAMERICANO,MATUTINO,LA ROSA MZ. 95 LT. 9,SAN MIGUEL TEOTONGO,IZTAPALAPA,Particular,"LA ROSA MZ. 95 LT. 9, SAN MIGUEL TEOTONGO, IZTAPALAPA",19.3460938,-98.9934125,"19.3460938,-98.9934125"
381,Preescolar,CENTRO CULTURAL LAFAYETTE,MATUTINO,GUERRERO MZ. 501 LT. 11,IXTLAHUACAN,IZTAPALAPA,Particular,"GUERRERO MZ. 501 LT. 11, IXTLAHUACAN, IZTAPALAPA",19.324689,-99.1154566,"19.324689,-99.1154566"
382,Preescolar,CENTRO PEDAGOGICO INFANTIL FREIRE,MATUTINO,RÍO ATOYAC MZ. 1 LT. 15,CONSEJO AGRARISTA MEXICANO,IZTAPALAPA,Particular,"RÍO ATOYAC MZ. 1 LT. 15, CONSEJO AGRARISTA MEXICANO, IZTAPALAPA",19.3200932,-99.0581831,"19.3200932,-99.0581831"
383,Preescolar,ANA MARÍA MACHADO,MATUTINO,IGNACIO ELIAS MZ. 4 LT. 5,PARAJE SAN JUAN,IZTAPALAPA,Particular,"IGNACIO ELIAS MZ. 4 LT. 5, PARAJE SAN JUAN, IZTAPALAPA",19.3369183,-99.0665138,"19.3369183,-99.0665138"
384,Preescolar,EL CASTILLO DEL MAGO MERLIN,MATUTINO,MANUEL CAÑAS NO. 181,SANTA CRUZ MEYEHUALCO,IZTAPALAPA,Particular,"MANUEL CAÑAS NO. 181, SANTA CRUZ MEYEHUALCO, IZTAPALAPA",19.3405411,-99.0419867,"19.3405411,-99.0419867"
385,Preescolar,GUSANITO,MATUTINO,SAN JOSE NO. 8,SAN JOSE,IZTAPALAPA,Particular,"SAN JOSE NO. 8, SAN JOSE, IZTAPALAPA",19.3649642,-99.0891104,"19.3649642,-99.0891104"
386,Preescolar,CENTRO EDUCATIVO ITZA,MATUTINO,CAMINO A SANTA CRUZ NO. 30,LOMAS SAN LORENZO,IZTAPALAPA,Particular,"CAMINO A SANTA CRUZ NO. 30, LOMAS SAN LORENZO, IZTAPALAPA",19.3189963,-99.0690004,"19.3189963,-99.0690004"
387,Preescolar,SOR JUANA INÉS DE LA CRUZ,MATUTINO,PROVIDENCIA NO. 17,SANTA MARTHA ACATITLA,IZTAPALAPA,Particular,"PROVIDENCIA NO. 17, SANTA MARTHA ACATITLA, IZTAPALAPA",19.3593469,-99.0045833,"19.3593469,-99.0045833"
388,Preescolar,ARNOLD GESELL,MATUTINO,CDA. MÉXICO MZ. 51 LT. 10,SANTA MARIA AZTAHUACAN,IZTAPALAPA,Particular,"CDA. MÉXICO MZ. 51 LT. 10, SANTA MARIA AZTAHUACAN, IZTAPALAPA",19.3417835,-99.0280153,"19.3417835,-99.0280153"
389,Preescolar,LA BURBUJA,MATUTINO,EMILIO BERLINER MZ. 41 LT. 14,FUEGO NUEVO,IZTAPALAPA,Particular,"EMILIO BERLINER MZ. 41 LT. 14, FUEGO NUEVO, IZTAPALAPA",19.3325537,-99.0985642,"19.3325537,-99.0985642"
390,Preescolar,PASCUAL ORTIZ RUBIO,MATUTINO,INDEPENDENCIA NO. 31,APATLACO,IZTAPALAPA,Particular,"INDEPENDENCIA NO. 31, APATLACO, IZTAPALAPA",19.3813442,-99.1145274,"19.3813442,-99.1145274"
391,Preescolar,EL MAGO DE OZ,MATUTINO,10 DE ABRIL DE 1859 MZ. 99 LT. 1038-C,LEYES DE REFORMA,IZTAPALAPA,Particular,"10 DE ABRIL DE 1859 MZ. 99 LT. 1038-C, LEYES DE REFORMA, IZTAPALAPA",19.3786152,-99.0758685,"19.3786152,-99.0758685"
392,Preescolar,HORMIGUITAS,MATUTINO,LIBERTAD NO. 126,SAN LUCAS,IZTAPALAPA,Particular,"LIBERTAD NO. 126, SAN LUCAS, IZTAPALAPA",19.3578625,-99.0973653,"19.3578625,-99.0973653"
393,Preescolar,INSTITUTO GLUMER,MATUTINO,ALCANFORES NO. 49,VALLE DEL SUR,IZTAPALAPA,Particular,"ALCANFORES NO. 49, VALLE DEL SUR, IZTAPALAPA",19.3447734,-99.1143878,"19.3447734,-99.1143878"
394,Preescolar,ALFONSO CRAVIOTO,MATUTINO,PORFIRIO SOSA NO. 147,UNIDAD HABITACIONAL COLONIAL IZTAPALAPA,IZTAPALAPA,Particular,"PORFIRIO SOSA NO. 147, UNIDAD HABITACIONAL COLONIAL IZTAPALAPA, IZTAPALAPA",19.3483682,-99.0560947,"19.3483682,-99.0560947"
395,Preescolar,COLEGIO ABRAHAM CASTELLANOS,MATUTINO,PROLONGACION PACHICALCO NO. 48,SAN LUCAS,IZTAPALAPA,Particular,"PROLONGACION PACHICALCO NO. 48, SAN LUCAS, IZTAPALAPA",19.3601288,-99.095831,"19.3601288,-99.095831"
396,Preescolar,LA CASITA,MATUTINO,BOULEVARD CAPRI NO. 63,LOMAS ESTRELLA,IZTAPALAPA,Particular,"BOULEVARD CAPRI NO. 63, LOMAS ESTRELLA, IZTAPALAPA",19.3238467,-99.0933239,"19.3238467,-99.0933239"
397,Preescolar,COLEGIO WOLDMAN DE MÉXICO,MATUTINO,CAFETALES NO. 78,GRANJAS COAPA,TLALPAN,Particular,"CAFETALES NO. 78, GRANJAS COAPA, TLALPAN",19.2979721,-99.1138186,"19.2979721,-99.1138186"
398,Preescolar,MUNDO MAGICO,MATUTINO,TORRE LATINOAMERICANA MZ. 28 LT. 37,BUENAVISTA,IZTAPALAPA,Particular,"TORRE LATINOAMERICANA MZ. 28 LT. 37, BUENAVISTA, IZTAPALAPA",19.3322556,-99.0292365,"19.3322556,-99.0292365"
399,Preescolar,HEROICO CUERPO DE BOMBEROS,MATUTINO,JAVIER ESPINOZA NO. 42,SANTA MARTHA ACATITLA,IZTAPALAPA,Particular,"JAVIER ESPINOZA NO. 42, SANTA MARTHA ACATITLA, IZTAPALAPA",19.3649202,-99.0201244,"19.3649202,-99.0201244"
400,Preescolar,CENTRO DE ESTIMULACIÓN TEMPRANA Y EDUCACIÓN INFANTIL,MATUTINO,RIO CHURUBUSCO NO. 198,PRADO CHURUBUSCO,IZTAPALAPA,Particular,"RIO CHURUBUSCO NO. 198, PRADO CHURUBUSCO, IZTAPALAPA",19.3570464,-99.1350672,"19.3570464,-99.1350672"
401,Preescolar,ALBERT EINSTEIN,MATUTINO,CDA. PINO MZ. 136 LT. 38,IXTLAHUACAN,IZTAPALAPA,Particular,"CDA. PINO MZ. 136 LT. 38, IXTLAHUACAN, IZTAPALAPA",19.3261989,-99.0209685,"19.3261989,-99.0209685"
402,Preescolar,INSTITUTO GENERAL LÁZARO CARDENAS DEL RIO,MATUTINO,AV. BENITO JUÁREZ NO. 88,EL ROSARIO,IZTAPALAPA,Particular,"AV. BENITO JUÁREZ NO. 88, EL ROSARIO, IZTAPALAPA",19.333173,-99.0585966,"19.333173,-99.0585966"
403,Preescolar,LUZ DEL SABER,VESPERTINO,MADROÑO MZ. 2 LT. 2,CONSEJO AGRARISTA MEXICANO,IZTAPALAPA,Particular,"MADROÑO MZ. 2 LT. 2, CONSEJO AGRARISTA MEXICANO, IZTAPALAPA",19.3211115,-99.0580271,"19.3211115,-99.0580271"
404,Preescolar,EL FUTURO DE MÉXICO,MATUTINO,FRESNO NO. 5,EL MANTO,IZTAPALAPA,Particular,"FRESNO NO. 5, EL MANTO, IZTAPALAPA",19.3516262,-99.0833832,"19.3516262,-99.0833832"
405,Preescolar,INSTITUTO PEDAGOGICO JEROEN BOSCO,MATUTINO,ROSA NO. 102,SAN LORENZO XICOTENCATL,IZTAPALAPA,Particular,"ROSA NO. 102, SAN LORENZO XICOTENCATL, IZTAPALAPA",19.3851167,-99.0248201,"19.3851167,-99.0248201"
406,Preescolar,GUARDERIA INFANTIL ING. G. HUGO BECKMAN,MATUTINO,FRANCISCO PIMENTEL NO. 92,SAN RAFAEL,CUAUHTEMOC,Particular,"FRANCISCO PIMENTEL NO. 92, SAN RAFAEL, CUAUHTEMOC",19.4395667,-99.166675,"19.4395667,-99.166675"
407,Preescolar,COLEGIO CARLOS PELLICER,MATUTINO,AQUILES SERDAN NO. 421,QUIRINO MENDOZA,XOCHIMILCO,Particular,"AQUILES SERDAN NO. 421, QUIRINO MENDOZA, XOCHIMILCO",19.2592952,-99.026373,"19.2592952,-99.026373"
408,Preescolar,COLEGIO PEDAGOGICO ABC,MATUTINO,PRIVADA INDEPENDENCIA  NO. 19,SAN NICOLAS TOTOLAPAN,LA MAGDALENA CONTRERAS,Particular,"PRIVADA INDEPENDENCIA  NO. 19, SAN NICOLAS TOTOLAPAN, LA MAGDALENA CONTRERAS",19.2976997,-99.2454647,"19.2976997,-99.2454647"
409,Preescolar,INSTITUTO FIRLEFANZ,MATUTINO,ESTRELLA CEFEIDA NO. 101,ESPARTACO,COYOACAN,Particular,"ESTRELLA CEFEIDA NO. 101, ESPARTACO, COYOACAN",19.3169695,-99.1333282,"19.3169695,-99.1333282"
410,Preescolar,JARDIN DE NIÑOS MONTES DE OCA,MATUTINO,SAUZALES NO. 133,VILLA COAPA,TLALPAN,Particular,"SAUZALES NO. 133, VILLA COAPA, TLALPAN",19.2953377,-99.1104137,"19.2953377,-99.1104137"
411,Preescolar,D'ALEMBERT KINDERGARTEN,MATUTINO,PIRINEOS NO. 103,PORTALES,BENITO JUAREZ,Particular,"PIRINEOS NO. 103, PORTALES, BENITO JUAREZ",19.3624165,-99.1475409,"19.3624165,-99.1475409"
412,Preescolar,CENTRO INTEGRAL DE DESARROLLO INFANTIL TOFI,MATUTINO,PASEO DE ANTIOQUIA NO. 61,LOMAS ESTRELLA,IZTAPALAPA,Particular,"PASEO DE ANTIOQUIA NO. 61, LOMAS ESTRELLA, IZTAPALAPA",19.3206955,-99.0984396,"19.3206955,-99.0984396"
413,Preescolar,A-B-C,MATUTINO,LUCIO BLANCO NO. 25,SANTA CRUZ MEYEHUALCO,IZTAPALAPA,Particular,"LUCIO BLANCO NO. 25, SANTA CRUZ MEYEHUALCO, IZTAPALAPA",19.3405557,-99.0499013,"19.3405557,-99.0499013"
414,Preescolar,COLEGIO HEIDELBERG,MATUTINO,SINATEL NO. 2,SINATEL AMPLIACION,IZTAPALAPA,Particular,"SINATEL NO. 2, SINATEL AMPLIACION, IZTAPALAPA",19.3647111,-99.1334572,"19.3647111,-99.1334572"
415,Preescolar,DANTE ALIGHIERI,MATUTINO,NETZAHUALCOYOTL MZ. 35 LT. 60,ESTRELLAS DEL SUR,IZTAPALAPA,Particular,"NETZAHUALCOYOTL MZ. 35 LT. 60, ESTRELLAS DEL SUR, IZTAPALAPA",19.348944,-99.0992755,"19.348944,-99.0992755"
416,Preescolar,CHARLES BELL,MATUTINO,RETORNO TUYEHUALCO NO. 5,LOMAS ESTRELLA,IZTAPALAPA,Particular,"RETORNO TUYEHUALCO NO. 5, LOMAS ESTRELLA, IZTAPALAPA",19.3221529,-99.0943785,"19.3221529,-99.0943785"
417,Preescolar,INSTITUTO PEDAGOGICO ERASE UNA VEZ,MATUTINO,OSUNA NO. 90,CERRO DE LA ESTRELLA,IZTAPALAPA,Particular,"OSUNA NO. 90, CERRO DE LA ESTRELLA, IZTAPALAPA",19.3243667,-99.0788395,"19.3243667,-99.0788395"
418,Preescolar,JARDIN DE NIÑOS GARABATOS,MATUTINO,NAHUATLECAS NO. 512 MZA. 43 LT. 2,AJUSCO,COYOACAN,Particular,"NAHUATLECAS NO. 512 MZA. 43 LT. 2, AJUSCO, COYOACAN",19.3154324,-99.1617593,"19.3154324,-99.1617593"
419,Preescolar,CENTRO DE DESARROLLO INTEGRAL BILINGÜE,MATUTINO,CALZADA TENORIOS NO. 51,RESIDENCIAL ACOXPA FRACCIONAMIENTO,TLALPAN,Particular,"CALZADA TENORIOS NO. 51, RESIDENCIAL ACOXPA FRACCIONAMIENTO, TLALPAN",19.3012318,-99.1213397,"19.3012318,-99.1213397"
420,Preescolar,CENTRO PEDAGOGICO ALDY,MATUTINO,AV. DE LAS TORRES NO. 158,TLALPAN,TLALPAN,Particular,"AV. DE LAS TORRES NO. 158, TLALPAN, TLALPAN",19.2916169,-99.139352,"19.2916169,-99.139352"
421,Preescolar,CANDAS AMERICANO,MATUTINO,JOSAFAT F. MARQUEZ NO. 116,UNIDAD HABITACIONAL COLONIAL IZTAPALAPA,IZTAPALAPA,Particular,"JOSAFAT F. MARQUEZ NO. 116, UNIDAD HABITACIONAL COLONIAL IZTAPALAPA, IZTAPALAPA",19.347495,-99.0567677,"19.347495,-99.0567677"
422,Preescolar,KATY,MATUTINO,CALLEJON SAN IGNACIO NO. 6 MZ.4 LT. 2,SAN IGNACIO,IZTAPALAPA,Particular,"CALLEJON SAN IGNACIO NO. 6 MZ.4 LT. 2, SAN IGNACIO, IZTAPALAPA",19.3659174,-99.0988072,"19.3659174,-99.0988072"
423,Preescolar,MUNDO DE JUGUETE,MATUTINO,FRANCISCO VILLA MZ. 29 LT. 22,PALMITAS,IZTAPALAPA,Particular,"FRANCISCO VILLA MZ. 29 LT. 22, PALMITAS, IZTAPALAPA",19.3376878,-99.0591821,"19.3376878,-99.0591821"
424,Preescolar,ANIBAL PONCE,MATUTINO,3 DE MAYO NO. 44,SAN JUAN XALPA,IZTAPALAPA,Particular,"3 DE MAYO NO. 44, SAN JUAN XALPA, IZTAPALAPA",19.3380868,-99.0815654,"19.3380868,-99.0815654"
425,Preescolar,CENTRO DE ATENCIÓN ESCOLAR ESTRELLITA,VESPERTINO,JAIME NUNO S/N MZ. 145 LT. 13,IXTLAHUACAN,IZTAPALAPA,Particular,"JAIME NUNO S/N MZ. 145 LT. 13, IXTLAHUACAN, IZTAPALAPA",19.3385303,-98.997699,"19.3385303,-98.997699"
426,Preescolar,COLEGIO OLIMPIA,MATUTINO,JOSE MARÍA DE JOARISTI MZ. 5 LT. 4,PARAJE SAN JUAN,IZTAPALAPA,Particular,"JOSE MARÍA DE JOARISTI MZ. 5 LT. 4, PARAJE SAN JUAN, IZTAPALAPA",19.3439428,-99.0747792,"19.3439428,-99.0747792"
427,Preescolar,FANTASIA ANGELICAL,VESPERTINO,HIDALGO MZ. 27 LT. 9,CAMPESTRE EL POTRERO,IZTAPALAPA,Particular,"HIDALGO MZ. 27 LT. 9, CAMPESTRE EL POTRERO, IZTAPALAPA",19.3301441,-98.9717212,"19.3301441,-98.9717212"
428,Preescolar,COLEGIO HEBREO TARBUT,MATUTINO,LOMA DEL PARQUE NO. 216,LOMAS DE VISTA HERMOSA,CUAJIMALPA DE MORELOS,Particular,"LOMA DEL PARQUE NO. 216, LOMAS DE VISTA HERMOSA, CUAJIMALPA DE MORELOS",19.3722023,-99.2769383,"19.3722023,-99.2769383"
429,Preescolar,THE APPLE TREE KINDERGARDEN,MATUTINO,PORFIRIO DIAZ NO. 94,NOCHE BUENA,BENITO JUAREZ,Particular,"PORFIRIO DIAZ NO. 94, NOCHE BUENA, BENITO JUAREZ",19.3792483,-99.1799335,"19.3792483,-99.1799335"
430,Preescolar,CENTRO ESCOLAR MORELOS,MATUTINO,AV. MORELOS NO. 665,MAGDALENA MIXHUCA,VENUSTIANO CARRANZA,Particular,"AV. MORELOS NO. 665, MAGDALENA MIXHUCA, VENUSTIANO CARRANZA",19.4081409,-99.1090642,"19.4081409,-99.1090642"
431,Preescolar,OHANA,MATUTINO,LUCIO BLANCO NO. 5,SANTA CRUZ MEYEHUALCO,IZTAPALAPA,Particular,"LUCIO BLANCO NO. 5, SANTA CRUZ MEYEHUALCO, IZTAPALAPA",19.3406313,-99.04725,"19.3406313,-99.04725"
432,Preescolar,CENTRO DE EDUCACIÓN PREESCOLAR AILEC,MATUTINO,JOSÉ MARÍA PARRAS NO. 301,JUAN ESCUTIA,IZTAPALAPA,Particular,"JOSÉ MARÍA PARRAS NO. 301, JUAN ESCUTIA, IZTAPALAPA",19.3903103,-99.0375238,"19.3903103,-99.0375238"
433,Preescolar,COLEGIO KID'S PLANET,MATUTINO,PANABA NO.63,PEDREGAL DE SAN NICOLAS,TLALPAN,Particular,"PANABA NO.63, PEDREGAL DE SAN NICOLAS, TLALPAN",19.2892937,-99.2325944,"19.2892937,-99.2325944"
434,Preescolar,LUIS VIVES,MATUTINO,CARLOS B. ZETINA NO. 45,ESCANDON,MIGUEL HIDALGO,Particular,"CARLOS B. ZETINA NO. 45, ESCANDON, MIGUEL HIDALGO",19.4065118,-99.1826973,"19.4065118,-99.1826973"
435,Preescolar,CEIDHI,MATUTINO,ORIENTE 91 NO. 2353,EMILIANO ZAPATA,GUSTAVO A. MADERO,Particular,"ORIENTE 91 NO. 2353, EMILIANO ZAPATA, GUSTAVO A. MADERO",19.462428,-99.1198421,"19.462428,-99.1198421"
436,Preescolar,ESCUELA MONTESSORI MERCEDES BENET,MATUTINO,EJERCITO NACIONAL NO. 1137,IRRIGACION,MIGUEL HIDALGO,Particular,"EJERCITO NACIONAL NO. 1137, IRRIGACION, MIGUEL HIDALGO",19.4391322,-99.2130301,"19.4391322,-99.2130301"
437,Preescolar,GOTITAS MAGICAS,MATUTINO,RIO COATZACOALCOS MZ. 46 LT. 1,VALLE DE SAN LORENZO,IZTAPALAPA,Particular,"RIO COATZACOALCOS MZ. 46 LT. 1, VALLE DE SAN LORENZO, IZTAPALAPA",19.3000612,-99.0746436,"19.3000612,-99.0746436"
438,Preescolar,GRAL GRACILIANO ALPUCHE PINZON,MATUTINO,CALLE SEIS NO. 178,GRANJAS SAN ANTONIO,IZTAPALAPA,Particular,"CALLE SEIS NO. 178, GRANJAS SAN ANTONIO, IZTAPALAPA",19.3637473,-99.1059906,"19.3637473,-99.1059906"
439,Preescolar,LICEO INFANTIL PAIDOS,MATUTINO,JOSE SOTERO CASTAÑEDA NO. 661,ASTURIAS AMPLIACION,CUAUHTEMOC,Particular,"JOSE SOTERO CASTAÑEDA NO. 661, ASTURIAS AMPLIACION, CUAUHTEMOC",19.4065749,-99.1318536,"19.4065749,-99.1318536"
440,Preescolar,KINDERGYM PASEOS DE TAXQUEÑA,MATUTINO,PASEO DE LOS ABETOS NO. 59,PASEOS DE TAXQUEÑA,COYOACAN,Particular,"PASEO DE LOS ABETOS NO. 59, PASEOS DE TAXQUEÑA, COYOACAN",19.3441075,-99.1285478,"19.3441075,-99.1285478"
441,Preescolar,CENTRO PEDAGOGICO VISTA HERMOSA,MATUTINO,RANCHO VISTA HERMOSA NO. 156,CAMPESTRE COYOACAN,COYOACAN,Particular,"RANCHO VISTA HERMOSA NO. 156, CAMPESTRE COYOACAN, COYOACAN",19.3069139,-99.1190919,"19.3069139,-99.1190919"
442,Preescolar,KRISTAL,MATUTINO,CDA. DE PAROTAS MZ. 124 LT. 74,SANTIAGO ACAHUALTEPEC 2A AMPLIACION,IZTAPALAPA,Particular,"CDA. DE PAROTAS MZ. 124 LT. 74, SANTIAGO ACAHUALTEPEC 2A AMPLIACION, IZTAPALAPA",19.3466867,-99.0115113,"19.3466867,-99.0115113"
443,Preescolar,COLEGIO CULTURA PREHISPANICA,MATUTINO,CULTURAS PREHISPANICAS NO. 137,GRANJAS SAN ANTONIO,IZTAPALAPA,Particular,"CULTURAS PREHISPANICAS NO. 137, GRANJAS SAN ANTONIO, IZTAPALAPA",19.3645504,-99.1043797,"19.3645504,-99.1043797"
444,Preescolar,LIBRO MAGICO,MATUTINO,CALLEJÓN DE COBOS NO. 257 B,SANTA BARBARA BARRIO,IZTAPALAPA,Particular,"CALLEJÓN DE COBOS NO. 257 B, SANTA BARBARA BARRIO, IZTAPALAPA",19.360252,-99.1007392,"19.360252,-99.1007392"
445,Preescolar,JOSÉ MARÍA LAFRAGUA,MATUTINO,IGNACIO L. VALLARTA NO. 155,JACARANDAS,IZTAPALAPA,Particular,"IGNACIO L. VALLARTA NO. 155, JACARANDAS, IZTAPALAPA",19.3483807,-99.0517082,"19.3483807,-99.0517082"
446,Preescolar,COLEGIO REIMS,MATUTINO,CAFETALES NO. 239,RINCONADA COAPA 1A SECCION,TLALPAN,Particular,"CAFETALES NO. 239, RINCONADA COAPA 1A SECCION, TLALPAN",19.292886,-99.1150348,"19.292886,-99.1150348"
447,Preescolar,BENITO JUÁREZ,MATUTINO,PEKIN NO. 130,AQUILES SERDAN,VENUSTIANO CARRANZA,Particular,"PEKIN NO. 130, AQUILES SERDAN, VENUSTIANO CARRANZA",19.4469778,-99.0930311,"19.4469778,-99.0930311"
448,Preescolar,CENTRO EDUCATIVO SAREPTA,MATUTINO,FLORICULTOR NO. 61,LA GUADALUPITA,XOCHIMILCO,Particular,"FLORICULTOR NO. 61, LA GUADALUPITA, XOCHIMILCO",19.2539842,-99.0374203,"19.2539842,-99.0374203"
449,Preescolar,NIÑOS DE HOY HOMBRES DEL FUTURO,MATUTINO,AV. SANTIAGO S/N MZ. 41 LT. 17,SANTA MARTHA ACATITLA  PUEBLO,IZTAPALAPA,Particular,"AV. SANTIAGO S/N MZ. 41 LT. 17, SANTA MARTHA ACATITLA  PUEBLO, IZTAPALAPA",19.357163,-99.0025881,"19.357163,-99.0025881"
450,Preescolar,CENTRO DE ENSEÑANZA MIS PRIMERAS LETRAS,MATUTINO,CERRADA DE FRESNO S/N MZA. 27 LT. 29,LOS OLIVOS 1A SECCION AMPLIACION,TLAHUAC,Particular,"CERRADA DE FRESNO S/N MZA. 27 LT. 29, LOS OLIVOS 1A SECCION AMPLIACION, TLAHUAC",,,
451,Preescolar,CENTRO EDUCATIVO ACTY GYM,MATUTINO,BARTOLOCHE NO. 1849,DEL VALLE,BENITO JUAREZ,Particular,"BARTOLOCHE NO. 1849, DEL VALLE, BENITO JUAREZ",19.3687153,-99.1743899,"19.3687153,-99.1743899"
452,Preescolar,CENTRO PEDAGOGICO CINTRON,MATUTINO,PARIS 1900 NO. 32,UNIDAD HABITACIONAL OLIMPICA,COYOACAN,Particular,"PARIS 1900 NO. 32, UNIDAD HABITACIONAL OLIMPICA, COYOACAN",19.30309,-99.1682737,"19.30309,-99.1682737"
453,Preescolar,COLEGIO CHIARAVALLE MONTESSORI,MATUTINO,CERRO DE SAN FRANCISCO NO. 295,CAMPESTRE CHURUBUSCO,COYOACAN,Particular,"CERRO DE SAN FRANCISCO NO. 295, CAMPESTRE CHURUBUSCO, COYOACAN",19.3433162,-99.1324483,"19.3433162,-99.1324483"
454,Preescolar,JUAN RUÍZ DE ALARCÓN,MATUTINO,NICOLAS CATALAN MZ. 17 LT. 6,PARAJE SAN JUAN JOYA,IZTAPALAPA,Particular,"NICOLAS CATALAN MZ. 17 LT. 6, PARAJE SAN JUAN JOYA, IZTAPALAPA",19.3372558,-99.0651488,"19.3372558,-99.0651488"
455,Preescolar,DINO,MATUTINO,JACARANDAS MZ. 46 LT. 29,SAN MIGUEL TEOTONGO,IZTAPALAPA,Particular,"JACARANDAS MZ. 46 LT. 29, SAN MIGUEL TEOTONGO, IZTAPALAPA",19.3397378,-98.9846822,"19.3397378,-98.9846822"
456,Preescolar,INSTITUTO PEDAGÓGICO STEFAN ZWEIG,MATUTINO,20 DE NOVIEMBRE MZ. 49 LT. 537,SANTA MARIA AZTAHUACAN,IZTAPALAPA,Particular,"20 DE NOVIEMBRE MZ. 49 LT. 537, SANTA MARIA AZTAHUACAN, IZTAPALAPA",19.3469308,-99.0251533,"19.3469308,-99.0251533"
457,Preescolar,PIERRE JANET,MATUTINO,AGUSTIN MELGAR NO. 37 MZ. 7 LT. 18,GUADALUPE DEL MORAL,IZTAPALAPA,Particular,"AGUSTIN MELGAR NO. 37 MZ. 7 LT. 18, GUADALUPE DEL MORAL, IZTAPALAPA",19.3705797,-99.0764036,"19.3705797,-99.0764036"
458,Preescolar,KINDER HAPPY KIDS,MATUTINO,KIMBILA (ACT.HUHUETAN) S/N. MZA.171 LT.5,HEROES DE PADIERNA,TLALPAN,Particular,"KIMBILA (ACT.HUHUETAN) S/N. MZA.171 LT.5, HEROES DE PADIERNA, TLALPAN",,,
459,Preescolar,GUADALUPE VICTORIA,MATUTINO,FLOR DE CAPOMO MZ. 3 LT. 8,SANTIAGO ACAHUALTEPEC 2A AMPLIACION,IZTAPALAPA,Particular,"FLOR DE CAPOMO MZ. 3 LT. 8, SANTIAGO ACAHUALTEPEC 2A AMPLIACION, IZTAPALAPA",19.3596315,-99.002116,"19.3596315,-99.002116"
460,Preescolar,JARDÍN DE NIÑOS BALOO,MATUTINO,LAGO ERIE NO. 45,TACUBA,MIGUEL HIDALGO,Particular,"LAGO ERIE NO. 45, TACUBA, MIGUEL HIDALGO",19.4550665,-99.190859,"19.4550665,-99.190859"
461,Preescolar,GREENIES KINDER,MATUTINO,CALLE 3 NO. 155 (ANTES MZA. 15 LT. 7),LOMAS DE LOS ANGELES DE TETELPAN,ALVARO OBREGON,Particular,"CALLE 3 NO. 155 (ANTES MZA. 15 LT. 7), LOMAS DE LOS ANGELES DE TETELPAN, ALVARO OBREGON",19.3445595,-99.2155215,"19.3445595,-99.2155215"
462,Preescolar,ALEGRO MONTESSORI,MATUTINO,NAVIO NO. 7,LOMAS DE CHAMIZAL,CUAJIMALPA DE MORELOS,Particular,"NAVIO NO. 7, LOMAS DE CHAMIZAL, CUAJIMALPA DE MORELOS",19.386628,-99.2649705,"19.386628,-99.2649705"
463,Preescolar,CENTRO PEDAGOGICO INFANTIL GUADALUPE,MATUTINO,COREA NO. 75,ROMERO RUBIO,VENUSTIANO CARRANZA,Particular,"COREA NO. 75, ROMERO RUBIO, VENUSTIANO CARRANZA",19.4388423,-99.0999815,"19.4388423,-99.0999815"
